{
  "meta": {
    "source": "SAMD Directory 2024 VERSION 2",
    "extracted": "2024-12-24",
    "total_doctors": 400
  },
  "doctors": [
    {
      "id": 1,
      "name": "DR. FAIZAL VORA",
      "qualification": "President, (SAMD)",
      "phone": "",
      "hospital": "DIRECTORY 2022-23 FOR SOUTH GUJARAT ASSOCIATION OF MUSLIM DOCTORS",
      "address": "DIRECTORY 2022-23 FOR SOUTH GUJARAT ASSOCIATION OF MUSLIM DOCTORS, Compiled By Dr Shahnavaz Kanuga                          Version 2.0                                         updated on 26/06/24.   3 SAMD is a celebration, for what we have achieved till now and for what remains to be achieved., Surat, Gujarat, India",
      "specialty": "GENERAL",
      "verified": false,
      "lat": null,
      "lng": null
    },
    {
      "id": 2,
      "name": "DR ASIF RAHEEM",
      "qualification": "Advisor (SAMD)",
      "phone": "",
      "hospital": "DIRECTORY 2022-23 FOR SOUTH GUJARAT ASSOCIATION OF MUSLIM DOCTORS",
      "address": "DIRECTORY 2022-23 FOR SOUTH GUJARAT ASSOCIATION OF MUSLIM DOCTORS, Compiled By Dr Shahnavaz Kanuga                          Version 2.0                                         updated on 26/06/24.   4 Assalamualaikum, Surat, Gujarat, India",
      "specialty": "GENERAL",
      "verified": false,
      "lat": null,
      "lng": null
    },
    {
      "id": 3,
      "name": "DR ASHRAF MASTER",
      "qualification": "Advisor (SAMD)",
      "phone": "",
      "hospital": "",
      "address": "",
      "specialty": "GENERAL",
      "verified": false,
      "lat": null,
      "lng": null
    },
    {
      "id": 4,
      "name": "DR SHAHNAVAZ KANUGA",
      "qualification": "VICE PRESIDENT, (SAMD)",
      "phone": "",
      "hospital": "DIRECTORY 2022-23 FOR SOUTH GUJARAT ASSOCIATION OF MUSLIM DOCTORS",
      "address": "DIRECTORY 2022-23 FOR SOUTH GUJARAT ASSOCIATION OF MUSLIM DOCTORS, Compiled By Dr Shahnavaz Kanuga                          Version 2.0                                         updated on 26/06/24.   6 Greetings from Dr Zainul Abedin Gagan, secretary SAMD, Surat, Gujarat, India",
      "specialty": "GENERAL",
      "verified": false,
      "lat": null,
      "lng": null
    },
    {
      "id": 5,
      "name": "DR ZAINUL ABEDIN GAGAN",
      "qualification": "Secretary, (SAMD)",
      "phone": "",
      "hospital": "DIRECTORY 2022-23 FOR SOUTH GUJARAT ASSOCIATION OF MUSLIM DOCTORS",
      "address": "DIRECTORY 2022-23 FOR SOUTH GUJARAT ASSOCIATION OF MUSLIM DOCTORS, Compiled By Dr Shahnavaz Kanuga                          Version 2.0                                         updated on 26/06/24.   7 Dear colleagues and members of the medical community,, Surat, Gujarat, India",
      "specialty": "GENERAL",
      "verified": false,
      "lat": null,
      "lng": null
    },
    {
      "id": 6,
      "name": "DR EJAZ BIDIWALA",
      "qualification": "Treasurer, (SAMD)",
      "phone": "",
      "hospital": "DIRECTORY 2022-23 FOR SOUTH GUJARAT ASSOCIATION OF MUSLIM DOCTORS",
      "address": "DIRECTORY 2022-23 FOR SOUTH GUJARAT ASSOCIATION OF MUSLIM DOCTORS, Compiled By Dr Shahnavaz Kanuga                          Version 2.0                                         updated on 26/06/24.   8 Greetings from the joint secretary of SAMD!, Surat, Gujarat, India",
      "specialty": "GENERAL",
      "verified": false,
      "lat": null,
      "lng": null
    },
    {
      "id": 7,
      "name": "DR RAMIZ MEMON",
      "qualification": "Joint Secretary (SAMD)",
      "phone": "",
      "hospital": "DIRECTORY 2022-23 FOR SOUTH GUJARAT ASSOCIATION OF MUSLIM DOCTORS",
      "address": "DIRECTORY 2022-23 FOR SOUTH GUJARAT ASSOCIATION OF MUSLIM DOCTORS, Compiled By Dr Shahnavaz Kanuga                          Version 2.0                                         updated on 26/06/24.   9 િપ્રય સભ્યો, �ું આશા રા�ું છું ક� આ સંદ�શ તમે બધા સારા સ્વાસ્થ્યમાં હોવ. SAMD ના સં�ુક્ત ખજાનચી તર�ક�,, Surat, Gujarat, India",
      "specialty": "GENERAL",
      "verified": false,
      "lat": null,
      "lng": null
    },
    {
      "id": 8,
      "name": "DR. ASMA SADIK SHAIKH",
      "qualification": "",
      "phone": "9825608818",
      "hospital": "DA, ANESTHESIA",
      "address": "DA, ANESTHESIA, UNITY HOSPITAL, PARVAT PATIYA, SURAT, Gujarat, India",
      "specialty": "AUXILIARY MEMBERS",
      "verified": false,
      "lat": null,
      "lng": null
    },
    {
      "id": 9,
      "name": "DR. MAKSUD G KANUGA",
      "qualification": "M.D  ANAESTHESIA",
      "phone": "9825117273",
      "hospital": "SURAT PAIN MANAGEMENT",
      "address": "SURAT PAIN MANAGEMENT, CENTRE   JALNIDHI COMPLEX OPP BAHUMALI NANPURA, SURAT, Gujarat, India",
      "specialty": "AUXILIARY MEMBERS",
      "verified": false,
      "lat": null,
      "lng": null
    },
    {
      "id": 10,
      "name": "DR. MOHAMMEDJUNED",
      "qualification": "M.D ANAESTHASIA",
      "phone": "9825152927",
      "hospital": "ABDULSATTAR MANSURI",
      "address": "ABDULSATTAR MANSURI, AZIM HOSPITAL KAMREJ CHARRASTA KHOLVAD, SURAT, Gujarat, India",
      "specialty": "AUXILIARY MEMBERS",
      "verified": false,
      "lat": null,
      "lng": null
    },
    {
      "id": 11,
      "name": "DR. MOHAMMED AAQEEB",
      "qualification": "M.D ANESTHESIA,",
      "phone": "9724275767",
      "hospital": "AEJAZ AHMED LAKDAWALA",
      "address": "AEJAZ AHMED LAKDAWALA, BARODA HEART AND MULTISPECIALITY HOSPITAL., Surat, Gujarat, India",
      "specialty": "AUXILIARY MEMBERS",
      "verified": false,
      "lat": null,
      "lng": null
    },
    {
      "id": 12,
      "name": "DR.M. FAIZAN KANUGA",
      "qualification": "MD (ANAESTHESIOLOGY)",
      "phone": "9913926780",
      "hospital": "GOVERNMENT MEDICAL",
      "address": "GOVERNMENT MEDICAL, COLLEGE AND NEW CIVIL HOSPITAL SURAT., Gujarat, India",
      "specialty": "AUXILIARY MEMBERS",
      "verified": false,
      "lat": null,
      "lng": null
    },
    {
      "id": 13,
      "name": "DR HINA KHAN",
      "qualification": "M.D ANESTHESIOLOGY",
      "phone": "9993563133",
      "hospital": "ANKLESHWAR SARVAJANIK",
      "address": "ANKLESHWAR SARVAJANIK, HOSPITAL., Surat, Gujarat, India",
      "specialty": "AUXILIARY MEMBERS",
      "verified": false,
      "lat": null,
      "lng": null
    },
    {
      "id": 14,
      "name": "DR. IBRAHIM BADAT",
      "qualification": "M.D (MEDICINE)",
      "phone": "9824151101",
      "hospital": "MEDICARE HOSPITAL,4/391,",
      "address": "MEDICARE HOSPITAL,4/391,, HINDU KUMBHARWAD, RANDER, SURAT-5, GUJARAT,, Gujarat, India",
      "specialty": "CARDIOLOGIST (INTERVENTIONAL)",
      "verified": false,
      "lat": null,
      "lng": null
    },
    {
      "id": 15,
      "name": "DR. M.T. RANGWALA",
      "qualification": "M.D. MEDICINE",
      "phone": "9825118903",
      "hospital": "ZAMPABAZAR, SURAT",
      "address": "ZAMPABAZAR, SURAT, Gujarat, India",
      "specialty": "CARDIOLOGIST (INTERVENTIONAL)",
      "verified": false,
      "lat": null,
      "lng": null
    },
    {
      "id": 16,
      "name": "DR. SHABBIR S INDOREWALA",
      "qualification": "M.D(GENERAL MEDICINE)",
      "phone": "9825382702",
      "hospital": "SHET P T SURAT GENERAL",
      "address": "SHET P T SURAT GENERAL, HOSPITAL, BALAJI ROAD, SURAT & BURHANI HOSPITAL, MAHIDHARPURA, SURAT, Gujarat, India",
      "specialty": "CARDIOLOGIST (INTERVENTIONAL)",
      "verified": false,
      "lat": null,
      "lng": null
    },
    {
      "id": 17,
      "name": "DR. SHABBIR H RAJKOTWALA",
      "qualification": "M.D - MEDICINE",
      "phone": "9925906952",
      "hospital": "LIFELINE HOSPITAL, LINDA",
      "address": "LIFELINE HOSPITAL, LINDA, CHOWK, BARDOLI, Surat, Gujarat, India",
      "specialty": "CARDIOLOGIST (INTERVENTIONAL)",
      "verified": false,
      "lat": null,
      "lng": null
    },
    {
      "id": 18,
      "name": "DR VASIM MANSURI",
      "qualification": "M.D.MEDICINE",
      "phone": "9899315994",
      "hospital": "HAJI A.M LOKHAT AND",
      "address": "HAJI A.M LOKHAT AND, MOOLLA SARVAJANIK HOSPITAL,, Surat, Gujarat, India",
      "specialty": "CARDIOLOGIST (INTERVENTIONAL)",
      "verified": false,
      "lat": null,
      "lng": null
    },
    {
      "id": 19,
      "name": "DR. SAFWAN SALIM PATEL",
      "qualification": "M.B.B.S, M.D (INTERNAL",
      "phone": "9924882837",
      "hospital": "MEDICINE)",
      "address": "MEDICINE), PATEL CLINIC, KOSAMBA(EAST), TA MANGROL, DI SURAT -394120, Gujarat, India",
      "specialty": "CARDIOLOGIST (INTERVENTIONAL)",
      "verified": false,
      "lat": null,
      "lng": null
    },
    {
      "id": 20,
      "name": "DR. SAMIM ANAS SHAIKH",
      "qualification": "M.B.B.S, PERSUING DNB",
      "phone": "9913065765",
      "hospital": "MEDICINE",
      "address": "MEDICINE, HORIZON HOSPITAL, 407-418 RAJSHREE CITY CENTRE SAGRAMPURA MAINROAD, 395002, Surat, Gujarat, India",
      "specialty": "CARDIOLOGIST (INTERVENTIONAL)",
      "verified": false,
      "lat": null,
      "lng": null
    },
    {
      "id": 21,
      "name": "DR. ABDULHAMID MOHAMMED",
      "qualification": "D.N.B. GENERAL MEDICINE",
      "phone": "8460455862",
      "hospital": "SALIM SARASWALA",
      "address": "SALIM SARASWALA, AT PRESENT WORKING AS ICU REGISTRAR AT SANJEEVANI HOSPITAL, VESU, SURAT., Gujarat, India",
      "specialty": "CARDIOLOGIST (INTERVENTIONAL)",
      "verified": false,
      "lat": null,
      "lng": null
    },
    {
      "id": 22,
      "name": "DR. ANAS PATNI",
      "qualification": "M.D COMMUNITY MEDICINE",
      "phone": "9688000000",
      "hospital": "NEW CIVIL HOSPITAL, SURAT",
      "address": "NEW CIVIL HOSPITAL, SURAT, Gujarat, India",
      "specialty": "CONSULTING PHYSICIAN",
      "verified": false,
      "lat": null,
      "lng": null
    },
    {
      "id": 23,
      "name": "DR. MOHAMMED ILIYAS",
      "qualification": "MBBS, M.D(FMT), DNB, PHD",
      "phone": "8866276032",
      "hospital": "SHEIKH",
      "address": "SHEIKH, PROFESSOR AND HEAD FORENSIC MEDICINE AND TOXICOLOGY SMIMER, SURAT, Gujarat, India",
      "specialty": "CONSULTING PHYSICIAN",
      "verified": false,
      "lat": null,
      "lng": null
    },
    {
      "id": 24,
      "name": "DR. SAJIDALI S. SAIYAD",
      "qualification": "MBBS. MD. PGCIH. PHD",
      "phone": "9909123730",
      "hospital": "SCHOLAR",
      "address": "SCHOLAR, KIRAN MEDICAL COLLEGE. SURAT., Gujarat, India",
      "specialty": "CONSULTING PHYSICIAN",
      "verified": false,
      "lat": null,
      "lng": null
    },
    {
      "id": 25,
      "name": "DR. NISRIN MAKSUD",
      "qualification": "M.B.B.S, DVD",
      "phone": "9825625552",
      "hospital": "WELLNESS SKIN CLINIC, 4 TH",
      "address": "WELLNESS SKIN CLINIC, 4 TH, FLOOR JASH POINT, OPP ASUTHOSH HOSPITAL, SAGRAMPURA, SURAT, Gujarat, India",
      "specialty": "CONSULTING PHYSICIAN",
      "verified": false,
      "lat": null,
      "lng": null
    },
    {
      "id": 26,
      "name": "DR KALEEMULLAH SAIYED",
      "qualification": "",
      "phone": "",
      "hospital": "",
      "address": "",
      "specialty": "CONSULTING PHYSICIAN",
      "verified": false,
      "lat": null,
      "lng": null
    },
    {
      "id": 27,
      "name": "DR. AEZAZAHMED MANJRA",
      "qualification": "RESIDENT, MD",
      "phone": "7574959965",
      "hospital": "DERMATOLOGY",
      "address": "DERMATOLOGY, SMS HOSPITAL, AHMEDABAD, Surat, Gujarat, India",
      "specialty": "DERMATOLOGIST",
      "verified": false,
      "lat": null,
      "lng": null
    },
    {
      "id": 28,
      "name": "DR. ASHRAF MASTER",
      "qualification": "M.B.B.S DLO ENT,",
      "phone": "9374722322",
      "hospital": "HEENA ENT HOSPITAL",
      "address": "HEENA ENT HOSPITAL, 101-2, MEDIPOINT, OPP UNION SCHOOL, LALGATE, SURAT., Gujarat, India",
      "specialty": "COMMUNITY MEDICINE & FORENSIC MEDICINE",
      "verified": false,
      "lat": null,
      "lng": null
    },
    {
      "id": 29,
      "name": "DR. SAIF SAIYAD",
      "qualification": "M.B.B.S,M.S ENT,DNB ENT.",
      "phone": "9726206961",
      "hospital": "",
      "address": "",
      "specialty": "COMMUNITY MEDICINE & FORENSIC MEDICINE",
      "verified": false,
      "lat": null,
      "lng": null
    },
    {
      "id": 30,
      "name": "DR. SHAHNAWAZ F. SHAH",
      "qualification": "M.D, FIAPM, FCPM, FPM",
      "phone": "9769682366",
      "hospital": "UNITY HOSPITAL, SURAT",
      "address": "UNITY HOSPITAL, SURAT, Gujarat, India",
      "specialty": "COMMUNITY MEDICINE & FORENSIC MEDICINE",
      "verified": false,
      "lat": null,
      "lng": null
    },
    {
      "id": 31,
      "name": "DR. H. M. SHARIF",
      "qualification": "DM NEUROLOGY",
      "phone": "8799337392",
      "hospital": "APEX NEURO AND OBS GYNAEC",
      "address": "APEX NEURO AND OBS GYNAEC, CLINIC, SILVASSA ., Surat, Gujarat, India",
      "specialty": "COMMUNITY MEDICINE & FORENSIC MEDICINE",
      "verified": false,
      "lat": null,
      "lng": null
    },
    {
      "id": 32,
      "name": "DR. SHAMS KANUGA",
      "qualification": "MD MEDICINE ( PURSUING DRNB",
      "phone": "9429331221",
      "hospital": "NEUROLOGY)",
      "address": "NEUROLOGY), Surat, Gujarat, India",
      "specialty": "COMMUNITY MEDICINE & FORENSIC MEDICINE",
      "verified": false,
      "lat": null,
      "lng": null
    },
    {
      "id": 33,
      "name": "DR. AYESHA AKHUNJI",
      "qualification": "M.D OBSTETRICS AND GYNAECOLOGY",
      "phone": "9825686799",
      "hospital": "SAHIL MATERNITY AND",
      "address": "SAHIL MATERNITY AND, NURSING HOME, MAZENINE FLR, RATNA CHINTAMANI APT, NEAR I P MISSION SCHOOL, MUGLISARA MAIN ROAD, SURAT,, Gujarat, India",
      "specialty": "NEUROPHYSICIAN",
      "verified": false,
      "lat": null,
      "lng": null
    },
    {
      "id": 34,
      "name": "DR. MO ANIS JEEVA",
      "qualification": "M.B.B.S DGO,",
      "phone": "8588053423",
      "hospital": "KATHOR SURAT GUJRAT,",
      "address": "KATHOR SURAT GUJRAT,, Gujarat, India",
      "specialty": "NEUROPHYSICIAN",
      "verified": false,
      "lat": null,
      "lng": null
    },
    {
      "id": 35,
      "name": "DR. MUMTAZ M MANSURI",
      "qualification": "M.D DGO,",
      "phone": "7383527444",
      "hospital": "AZIM HOSPITAL KAMREJ CHAR",
      "address": "AZIM HOSPITAL KAMREJ CHAR, RASTA KHOLWAD,, Surat, Gujarat, India",
      "specialty": "NEUROPHYSICIAN",
      "verified": false,
      "lat": null,
      "lng": null
    },
    {
      "id": 36,
      "name": "DR. NAZIMA M KAZI",
      "qualification": "M.B.B.S,DGO,",
      "phone": "9825152656",
      "hospital": "KAZI HOSPITAL,,RANI TALAV",
      "address": "KAZI HOSPITAL,,RANI TALAV, MAIN ROAD,,NEAR PANCHSHIL BANK,,LAL GATE ,,SURAT,, Gujarat, India",
      "specialty": "NEUROPHYSICIAN",
      "verified": false,
      "lat": null,
      "lng": null
    },
    {
      "id": 37,
      "name": "DR. TASLIMA MEMON",
      "qualification": "M.S GYNAEC",
      "phone": "8238034082",
      "hospital": "1) RUSHAN GYNEC HOSPITAL",
      "address": "1) RUSHAN GYNEC HOSPITAL, ORCHID TOWER OPP MAKBARA MASJID VED ROAD. 2) DIVINE HIBA HOSPITAL, ADAJAN PATIA., Surat, Gujarat, India",
      "specialty": "NEUROPHYSICIAN",
      "verified": false,
      "lat": null,
      "lng": null
    },
    {
      "id": 38,
      "name": "DR. ALISHA KANUGA",
      "qualification": "M.B.B.S, DLO, DFW, DIPGO,",
      "phone": "9426757690",
      "hospital": "KANUGA MATERNITY AND",
      "address": "KANUGA MATERNITY AND, GENERAL HOSPITAL, KOSAMBA,, Surat, Gujarat, India",
      "specialty": "NEUROPHYSICIAN",
      "verified": false,
      "lat": null,
      "lng": null
    },
    {
      "id": 39,
      "name": "DR.FARHIN MODI",
      "qualification": "MBBS,DGO,",
      "phone": "7984545530",
      "hospital": "CHC UMARPADA.",
      "address": "CHC UMARPADA., Surat, Gujarat, India",
      "specialty": "NEUROPHYSICIAN",
      "verified": false,
      "lat": null,
      "lng": null
    },
    {
      "id": 40,
      "name": "DR MUBASSIRA PATHAN",
      "qualification": "MBBS MS OBGYN,",
      "phone": "8469728151",
      "hospital": "KAKABA HOSPITAL, NEAR UTARAJ",
      "address": "KAKABA HOSPITAL, NEAR UTARAJ, VILLAGE, HANSOT. PHOENIX HOSPITAL, JAHANGIRPURA, SURAT, Gujarat, India",
      "specialty": "NEUROPHYSICIAN",
      "verified": false,
      "lat": null,
      "lng": null
    },
    {
      "id": 41,
      "name": "DR. TANVEER M MAKSUD",
      "qualification": "M.D MEDICAL ONCOLOGIST",
      "phone": "9427619056",
      "hospital": "SURAT ONCOLOGY CENTRE, 2ND FLOOR",
      "address": "SURAT ONCOLOGY CENTRE, 2ND FLOOR, ZENON, OPP UNIQUE HOSPITAL, NEAR KIRAN MOTOR, NEXT TO OPERA HOUSE, OFF RING ROAD, SURAT., Gujarat, India",
      "specialty": "OBSTETRICIAN & GYNAECOLOGIST",
      "verified": false,
      "lat": null,
      "lng": null
    },
    {
      "id": 42,
      "name": "DR. KAZI MOHMMAD SALMAN",
      "qualification": "M.B.B.S, M S",
      "phone": "",
      "hospital": "OPHTHALMOLOGY, FMRF,",
      "address": "OPHTHALMOLOGY, FMRF,, Surat, Gujarat, India",
      "specialty": "OBSTETRICIAN & GYNAECOLOGIST",
      "verified": false,
      "lat": null,
      "lng": null
    },
    {
      "id": 43,
      "name": "DR AGARWALS EYE HOSPITAL",
      "qualification": "",
      "phone": "",
      "hospital": "NR KRUSHI MANGAL HALL, OLD",
      "address": "NR KRUSHI MANGAL HALL, OLD, RTO, MAJURA GATE, SURAT. AVAILABLE AT VAPI BRANCH EVERY THURSDAY., Gujarat, India",
      "specialty": "SURGEON",
      "verified": false,
      "lat": null,
      "lng": null
    },
    {
      "id": 44,
      "name": "DR. KHUSHNOOD M",
      "qualification": "MBBS, DO, M.S",
      "phone": "9033583907",
      "hospital": "SHAIKH",
      "address": "SHAIKH, (OPHTHALMOLOGY) SMIMER, SURAT, Gujarat, India",
      "specialty": "SURGEON",
      "verified": false,
      "lat": null,
      "lng": null
    },
    {
      "id": 45,
      "name": "DR. FATEMA A SHAYER",
      "qualification": "M.S. (OPHTHALMOLOGY)",
      "phone": "",
      "hospital": "CATARACT AND REFRACTIVE",
      "address": "CATARACT AND REFRACTIVE, Surat, Gujarat, India",
      "specialty": "SURGEON",
      "verified": false,
      "lat": null,
      "lng": null
    },
    {
      "id": 46,
      "name": "DR. ANAS A SHAIKH",
      "qualification": "M.S ORTHOPAEDIC, FIJR, FIASM",
      "phone": "",
      "hospital": "(JOINT REPLACEMENT, ARTHROSCOPY",
      "address": "(JOINT REPLACEMENT, ARTHROSCOPY, Surat, Gujarat, India",
      "specialty": "OPTHALMOLOGIST & RETINAL SURGEON",
      "verified": false,
      "lat": null,
      "lng": null
    },
    {
      "id": 47,
      "name": "DR. MUBINUDDIN H KAZI",
      "qualification": "M.S ORTHO",
      "phone": "9825307089",
      "hospital": "KAZI ORTHOPAEDIC HOSPITAL",
      "address": "KAZI ORTHOPAEDIC HOSPITAL, & MATERNITY HOME,, RANI TALAV MAIN ROAD,, NEAR PANCHSHIL BANK,, LAL GATE,, SURAT,, Gujarat, India",
      "specialty": "SURGEON",
      "verified": false,
      "lat": null,
      "lng": null
    },
    {
      "id": 48,
      "name": "DR. RAHIL MAHAMADHANIF",
      "qualification": "M.S ORTHOPAEDICS",
      "phone": "8200619601",
      "hospital": "VAHORA",
      "address": "VAHORA, GMERS MEDICAL COLLEGE VALSAD,, Surat, Gujarat, India",
      "specialty": "SURGEON",
      "verified": false,
      "lat": null,
      "lng": null
    },
    {
      "id": 49,
      "name": "DR. SAAD KANUGA",
      "qualification": "M.B.B.S D'ORTH, DNB",
      "phone": "7030895967",
      "hospital": "HAJI A.M LOKHAT AND MOOLLA",
      "address": "HAJI A.M LOKHAT AND MOOLLA, SARVAJANIK HOSPITAL,, Surat, Gujarat, India",
      "specialty": "SURGEON",
      "verified": false,
      "lat": null,
      "lng": null
    },
    {
      "id": 50,
      "name": "DR. SADIK SHAIKH",
      "qualification": "M.S., (ORTHO)",
      "phone": "9825681012",
      "hospital": "1)UNITY HOSPITAL, AAI MATA ROAD,",
      "address": "1)UNITY HOSPITAL, AAI MATA ROAD,, PARVAT PATIYA, SURAT 2) UNITY ORTHOCARE, KADODARA, 3) UNITED GREEN HOSPITAL, 4)ZAINAB HOSPITAL, ADAJAN, SURAT 5) DIVINE HIBA HOSPITAL, ADAJAN, Gujarat, India",
      "specialty": "SURGEON",
      "verified": false,
      "lat": null,
      "lng": null
    },
    {
      "id": 51,
      "name": "DR ANAS DELAIR",
      "qualification": "MS ORTHOPEDIC",
      "phone": "9654258123",
      "hospital": "GARDEE CHARITABLE TRUST,",
      "address": "GARDEE CHARITABLE TRUST,, DABHEL. AMRUTLAL DESAI HOSPITAL, VESMA. CITY ORTHOPEDIC HOSPITAL, BHARUCH, Surat, Gujarat, India",
      "specialty": "SURGEON",
      "verified": false,
      "lat": null,
      "lng": null
    },
    {
      "id": 52,
      "name": "DR. HEENA CHOUHAN",
      "qualification": "M.D MICROBIOLOGY",
      "phone": "9624944461",
      "hospital": "",
      "address": "",
      "specialty": "SURGEON",
      "verified": false,
      "lat": null,
      "lng": null
    },
    {
      "id": 53,
      "name": "DR VAHED MULLA",
      "qualification": "",
      "phone": "9825419750",
      "hospital": "",
      "address": "",
      "specialty": "SURGEON",
      "verified": false,
      "lat": null,
      "lng": null
    },
    {
      "id": 54,
      "name": "DR. ALFIYA KHAN",
      "qualification": "M.B.B.S , DNB PEDIATRICS,",
      "phone": "8320967851",
      "hospital": "NIRMAL HOSPITAL,",
      "address": "NIRMAL HOSPITAL,, Surat, Gujarat, India",
      "specialty": "PATHOLOGIST",
      "verified": false,
      "lat": null,
      "lng": null
    },
    {
      "id": 55,
      "name": "DR. AKIKWALA MUSHIRA BANU",
      "qualification": "M.B.B.S DNB PEDIATRICS,",
      "phone": "9687610784",
      "hospital": "SHARIFMIYAN",
      "address": "SHARIFMIYAN, NIRMAL HOSPITAL,, Surat, Gujarat, India",
      "specialty": "PATHOLOGIST",
      "verified": false,
      "lat": null,
      "lng": null
    },
    {
      "id": 56,
      "name": "DR. ASHRAF A SHERASIYA",
      "qualification": "M.B.B.S DCH,",
      "phone": "9725783358",
      "hospital": "AMAR CHILDREN HOSPITAL",
      "address": "AMAR CHILDREN HOSPITAL, OPP RUPALI CINEMA, RANDER ROAD,SURAT, Gujarat, India",
      "specialty": "PATHOLOGIST",
      "verified": false,
      "lat": null,
      "lng": null
    },
    {
      "id": 57,
      "name": "DR. NAZNIN YUNUS QURESHI",
      "qualification": "M.B.B.S CIH PEDIATRIC",
      "phone": "9999765836",
      "hospital": "RESIDENT,",
      "address": "RESIDENT,, STATE HOSPITAL DHARAMPUR,, Surat, Gujarat, India",
      "specialty": "PATHOLOGIST",
      "verified": false,
      "lat": null,
      "lng": null
    },
    {
      "id": 58,
      "name": "DR. RAZAK VAHORA",
      "qualification": "M.B.B.S,DCH,",
      "phone": "7486979097",
      "hospital": "LOKHAT SARVAJANIK HOSPITAL",
      "address": "LOKHAT SARVAJANIK HOSPITAL, TULIP HOSPITAL, RAJSHREE CITY CENTRE, SAGRAMPURA MAIN ROAD, SURAT,, Gujarat, India",
      "specialty": "PATHOLOGIST",
      "verified": false,
      "lat": null,
      "lng": null
    },
    {
      "id": 59,
      "name": "DR. REHANA KALOLWALA",
      "qualification": "M.D DCH,",
      "phone": "9825783952",
      "hospital": "203-205 SHITAL COMPLEX",
      "address": "203-205 SHITAL COMPLEX, SAIYEDPURA VEG MARKET, SURAT, Gujarat, India",
      "specialty": "PATHOLOGIST",
      "verified": false,
      "lat": null,
      "lng": null
    },
    {
      "id": 60,
      "name": "DR. SAHINABANU YUSUF",
      "qualification": "DCH,",
      "phone": "7359510792",
      "hospital": "MOHMED KHANDHIYA",
      "address": "MOHMED KHANDHIYA, CIVIL HOSPITAL BHARUCH,, Surat, Gujarat, India",
      "specialty": "PATHOLOGIST",
      "verified": false,
      "lat": null,
      "lng": null
    },
    {
      "id": 61,
      "name": "DR. SEEMA AREBIYANI",
      "qualification": "M.B.B.S DCH,",
      "phone": "9167171529",
      "hospital": "MODI HOSPITAL VYARA,",
      "address": "MODI HOSPITAL VYARA,, Surat, Gujarat, India",
      "specialty": "PATHOLOGIST",
      "verified": false,
      "lat": null,
      "lng": null
    },
    {
      "id": 62,
      "name": "DR. SHAHEEN SOHEL MASTER",
      "qualification": "",
      "phone": "6351039062",
      "hospital": "PEDIATRICIAN,",
      "address": "PEDIATRICIAN,, SAMARPAN HOSPITAL, NEAR GUJRAT HOUSING BORD, SACHIN., Surat, Gujarat, India",
      "specialty": "PATHOLOGIST",
      "verified": false,
      "lat": null,
      "lng": null
    },
    {
      "id": 63,
      "name": "DR. SHAHEEN KHAN",
      "qualification": "M.D,DCH,",
      "phone": "9825165583",
      "hospital": "",
      "address": "",
      "specialty": "PATHOLOGIST",
      "verified": false,
      "lat": null,
      "lng": null
    },
    {
      "id": 64,
      "name": "DR.KHAN",
      "qualification": "",
      "phone": "",
      "hospital": "SURGICAL HOSPITAL, OPP FURJA",
      "address": "SURGICAL HOSPITAL, OPP FURJA, POLICE STATION CHOWK ,SURAT, Gujarat, India",
      "specialty": "PATHOLOGIST",
      "verified": false,
      "lat": null,
      "lng": null
    },
    {
      "id": 65,
      "name": "DR. SHAHID SHAIKH",
      "qualification": "M.D PEDIATRIC RESIDENT,",
      "phone": "7838218680",
      "hospital": "PEDIATRIC RESIDENT AT GMC",
      "address": "PEDIATRIC RESIDENT AT GMC, SURAT,, Gujarat, India",
      "specialty": "PATHOLOGIST",
      "verified": false,
      "lat": null,
      "lng": null
    },
    {
      "id": 66,
      "name": "DR. TASNEEM PARVEZ SHEIKH",
      "qualification": "M.B.B.S,  DCH,",
      "phone": "8511487722",
      "hospital": "SHAAFI HOSPITAL,  18-",
      "address": "SHAAFI HOSPITAL,  18-, MANIBAUG SOCIETY, DHARAMPUR ROAD, ABRAMA, VALSAD,  GUJARAT 396001,, Surat, Gujarat, India",
      "specialty": "PAEDITRICIAN",
      "verified": false,
      "lat": null,
      "lng": null
    },
    {
      "id": 67,
      "name": "DR. ZAHIDA INKISAR KHAN",
      "qualification": "M.B.B.S    M.D  PEDIATRICS,",
      "phone": "9426142609",
      "hospital": "ZAIN HOSPITAL, B/H JANTA",
      "address": "ZAIN HOSPITAL, B/H JANTA, MARKET-2, SUNRISE PARK LANE PANCHBATTI, BHARUCH,, Surat, Gujarat, India",
      "specialty": "PAEDITRICIAN",
      "verified": false,
      "lat": null,
      "lng": null
    },
    {
      "id": 68,
      "name": "DR. ZAINUL ABEDIN",
      "qualification": "",
      "phone": "",
      "hospital": "GULAMHUSENWALA",
      "address": "GULAMHUSENWALA, Surat, Gujarat, India",
      "specialty": "PAEDITRICIAN",
      "verified": false,
      "lat": null,
      "lng": null
    },
    {
      "id": 69,
      "name": "DR. SHAHID M. SHAIKH",
      "qualification": "MD PAEDIATRICS",
      "phone": "7838218680",
      "hospital": "NEW CIVIL HOSPITAL, SURAT.",
      "address": "NEW CIVIL HOSPITAL, SURAT., RAINBOW CHILDREN'S HOSPITAL, LAKKAD SHERI, GALEMANDI, SURAT., Gujarat, India",
      "specialty": "PAEDITRICIAN",
      "verified": false,
      "lat": null,
      "lng": null
    },
    {
      "id": 70,
      "name": "DR. INKISAR ANIS KHAN",
      "qualification": "M.B.B.S, M.S, MCH",
      "phone": "9825366299",
      "hospital": "ZAIN HOSPITAL, BEHIND JANTA",
      "address": "ZAIN HOSPITAL, BEHIND JANTA, MARKET - 2, PANCHBATTI, BHARUCH, GUJARAT 392001, Surat, Gujarat, India",
      "specialty": "PAEDITRICIAN",
      "verified": false,
      "lat": null,
      "lng": null
    },
    {
      "id": 71,
      "name": "DR. MOHSIN LOKHANDWALA",
      "qualification": "M.D RADIODIAGNOSIS-",
      "phone": "9825121190",
      "hospital": "IMAGING",
      "address": "IMAGING, HI-TECH IMAGING, TIRUPATI CHAMBER OPP SUB JAIL NEAR CHAMUNDA HOTEL RING RD SURAT, Gujarat, India",
      "specialty": "PLASTIC SURGEON",
      "verified": false,
      "lat": null,
      "lng": null
    },
    {
      "id": 72,
      "name": "DR. AHMED AJIJ AJARI",
      "qualification": "",
      "phone": "",
      "hospital": "",
      "address": "",
      "specialty": "PLASTIC SURGEON",
      "verified": false,
      "lat": null,
      "lng": null
    },
    {
      "id": 73,
      "name": "DR. FAEZA SHAHID SHAIKH",
      "qualification": "",
      "phone": "",
      "hospital": "",
      "address": "",
      "specialty": "PLASTIC SURGEON",
      "verified": false,
      "lat": null,
      "lng": null
    },
    {
      "id": 74,
      "name": "DR WASIM M PATEL",
      "qualification": "MBBS, MD (RADIODIAGNOSIS)",
      "phone": "8866805916",
      "hospital": "TARANG IMAGING CLINIC",
      "address": "TARANG IMAGING CLINIC, BARODA IMAGING CENTRE, BHARUCH, Surat, Gujarat, India",
      "specialty": "PLASTIC SURGEON",
      "verified": false,
      "lat": null,
      "lng": null
    },
    {
      "id": 75,
      "name": "DR. TANVI SHAIKH",
      "qualification": "M.D(PSYCHIATRY)",
      "phone": "9662531250",
      "hospital": "",
      "address": "",
      "specialty": "PLASTIC SURGEON",
      "verified": false,
      "lat": null,
      "lng": null
    },
    {
      "id": 76,
      "name": "DR. ZAINAB Z PANWALA",
      "qualification": "",
      "phone": "",
      "hospital": "",
      "address": "",
      "specialty": "PLASTIC SURGEON",
      "verified": false,
      "lat": null,
      "lng": null
    },
    {
      "id": 77,
      "name": "DR. HUZEFA VOHRA",
      "qualification": "M.D PSYCHIATRIS",
      "phone": "7405188472",
      "hospital": "HAKIMI NEUROPSYCHIATRIC",
      "address": "HAKIMI NEUROPSYCHIATRIC, CLINIC NR CANARA BANK, KOTSAFIL ROAD, BHAGAL, SURAT., Gujarat, India",
      "specialty": "PSYCHIATRIST",
      "verified": false,
      "lat": null,
      "lng": null
    },
    {
      "id": 78,
      "name": "DR. ABBAS EZZY",
      "qualification": "M.B.B.S, M.S,",
      "phone": "9825130764",
      "hospital": "GRACE HOSPITAL,",
      "address": "GRACE HOSPITAL,, KOTSAFIL ROAD, OPP RAVI MEDICAL. GRACE HOSPITAL GEETA NAGAR, PARVAT PATIYA, OPP CHORYASI DAIRY, Surat, Gujarat, India",
      "specialty": "PSYCHIATRIST",
      "verified": false,
      "lat": null,
      "lng": null
    },
    {
      "id": 79,
      "name": "DR. FEROZ ASHFAQ KHAN",
      "qualification": "M.S (GENERAL SURGERY),",
      "phone": "9825137411",
      "hospital": "FMAS,",
      "address": "FMAS,, Surat, Gujarat, India",
      "specialty": "PSYCHIATRIST",
      "verified": false,
      "lat": null,
      "lng": null
    },
    {
      "id": 80,
      "name": "DR KHAN",
      "qualification": "",
      "phone": "",
      "hospital": "SURGICAL HOSPITAL, 1ST",
      "address": "SURGICAL HOSPITAL, 1ST, FLOOR, SUMAR MANZIL, OPP FURJA POLICE STATION, CHOWK BAZAR, SURAT- 395003,GUJARAT,, Gujarat, India",
      "specialty": "PSYCHIATRIST",
      "verified": false,
      "lat": null,
      "lng": null
    },
    {
      "id": 81,
      "name": "DR. MOHAMMED MOTIWALA",
      "qualification": "M.S",
      "phone": "8980956292",
      "hospital": "NEW CIVIL HOSPITAL SURAT",
      "address": "NEW CIVIL HOSPITAL SURAT, Gujarat, India",
      "specialty": "PSYCHIATRIST",
      "verified": false,
      "lat": null,
      "lng": null
    },
    {
      "id": 82,
      "name": "DR. PARVEZ HANIF SHEIKH",
      "qualification": "",
      "phone": "",
      "hospital": "",
      "address": "",
      "specialty": "PSYCHIATRIST",
      "verified": false,
      "lat": null,
      "lng": null
    },
    {
      "id": 83,
      "name": "DR. TALHA F MOTALA",
      "qualification": "M.B.B.S, M.S (GEN SURGERY),",
      "phone": "9099280707",
      "hospital": "DMAS, FMAS,",
      "address": "DMAS, FMAS,, Surat, Gujarat, India",
      "specialty": "SURGEON",
      "verified": false,
      "lat": null,
      "lng": null
    },
    {
      "id": 84,
      "name": "DR. MOTALA SURGICAL AND",
      "qualification": "",
      "phone": "",
      "hospital": "PILES CLINIC, 1ST FLOOR,",
      "address": "PILES CLINIC, 1ST FLOOR,, SUBHAN PARK, NEAR SAYAN RAILWAY OVERBRIDGE, SAYAN, Surat, Gujarat, India",
      "specialty": "SURGEON",
      "verified": false,
      "lat": null,
      "lng": null
    },
    {
      "id": 85,
      "name": "DR. MURTAZA A. MAKASARWALA",
      "qualification": "",
      "phone": "",
      "hospital": "CONSULTANT - ROBOTIC & ADVANCED",
      "address": "CONSULTANT - ROBOTIC & ADVANCED, Surat, Gujarat, India",
      "specialty": "SURGEON",
      "verified": false,
      "lat": null,
      "lng": null
    },
    {
      "id": 86,
      "name": "DR. SAJID MAKBUL NURBHAI",
      "qualification": "",
      "phone": "8447400069",
      "hospital": "MCH UROLOGY RESIDENT",
      "address": "MCH UROLOGY RESIDENT, BJMC MEDICAL COLLEGE AND CIVIL HOSPITAL AHMEDABAD, Surat, Gujarat, India",
      "specialty": "SURGEON",
      "verified": false,
      "lat": null,
      "lng": null
    },
    {
      "id": 87,
      "name": "DR. HUSSAIN ISHAQUE SHAIKH",
      "qualification": "MBBS, MS (GENERAL SURGERY),",
      "phone": "8452827363",
      "hospital": "DRNB (UROLOGY)",
      "address": "DRNB (UROLOGY), SHALBY HOSPITAL, SURAT, Gujarat, India",
      "specialty": "SURGEON",
      "verified": false,
      "lat": null,
      "lng": null
    },
    {
      "id": 88,
      "name": "DR. DARAQSHAN PATEL",
      "qualification": "M.D.S - ORAL AND",
      "phone": "9620788033",
      "hospital": "MAXILLOFACIAL SURGERY",
      "address": "MAXILLOFACIAL SURGERY, ZITEL MULTI-SPECIALITY DENTAL ZONE, C WING, CAPITAL BUSINESS CENTRE, PANCHBATTI, BHARUCH 392001,, Surat, Gujarat, India",
      "specialty": "SURGEON",
      "verified": false,
      "lat": null,
      "lng": null
    },
    {
      "id": 89,
      "name": "DR. ANAS PATEL",
      "qualification": "M.D.S - PEDIATRIC DENTISTRY",
      "phone": "8050977478",
      "hospital": "ZITEL MULTI-SPECIALITY DENTAL",
      "address": "ZITEL MULTI-SPECIALITY DENTAL, ZONE, C WING, CAPITAL BUSINESS CENTRE, PANCHBATTI, BHARUCH 392001,, Surat, Gujarat, India",
      "specialty": "SURGEON",
      "verified": false,
      "lat": null,
      "lng": null
    },
    {
      "id": 90,
      "name": "DR YASAR PATEL",
      "qualification": "M.D.S ( ORAL & MAXILLOFACIAL",
      "phone": "9426136281",
      "hospital": "",
      "address": "",
      "specialty": "SURGEON",
      "verified": false,
      "lat": null,
      "lng": null
    },
    {
      "id": 91,
      "name": "DR. MUSTAFA MERCHANT",
      "qualification": "M.D.S ( ORAL AND MAXILLOFACIAL",
      "phone": "9916260252",
      "hospital": "SURGERY), FHNSO (FELLOWSHIP IN",
      "address": "SURGERY), FHNSO (FELLOWSHIP IN, HEAD AND NECK SURGICAL ONCOLOGY) BASIL COMPREHENSIVE CANCER CENTRE, KASHI PLAZA, 8TH FLOOR,  MAJURAGATE-395002 SURAT, Gujarat, India",
      "specialty": "SURGEON",
      "verified": false,
      "lat": null,
      "lng": null
    },
    {
      "id": 92,
      "name": "DR. ZUBER MAHIDA",
      "qualification": "M.D.S ( ORTHODONTIST AND",
      "phone": "9886542786",
      "hospital": "DENTOFACIAL ORTHOPEDICS)",
      "address": "DENTOFACIAL ORTHOPEDICS), 17,18SAHKAR NAGAR SOCIETY, NEAR POCKET STORE AND S T BUS STOP SURAT KAMREJ ROAD KAMREJ CHAR RASTA  SURAT GUJARAT,, Gujarat, India",
      "specialty": "SURGEON",
      "verified": false,
      "lat": null,
      "lng": null
    },
    {
      "id": 93,
      "name": "DR. SAEEDA KHARODIA",
      "qualification": "M.D.S IN ORAL AND",
      "phone": "7863008679",
      "hospital": "MAXILLOFACIAL SURGERY",
      "address": "MAXILLOFACIAL SURGERY, KHARODIA DENTAL CARE AND IMPLANT CENTRE, FF-8, GAYATRI CHAMBER, OPP CHAMUNDA MEDICOS, VALIA ROAD, KOSAMDI, ANKLESHWAR 393002,, Surat, Gujarat, India",
      "specialty": "SURGEON",
      "verified": false,
      "lat": null,
      "lng": null
    },
    {
      "id": 94,
      "name": "DR. ABBAS LAXMIDHAR",
      "qualification": "",
      "phone": "9033937478",
      "hospital": "MUSKAN DENTAL CARE AND",
      "address": "MUSKAN DENTAL CARE AND, IMPLANT CENTRE,5,PARADISE PLAZA,OPP PIPERDIWALA ENGLISH SCHOOL,RANDER,SURAT,, Gujarat, India",
      "specialty": "SURGEON",
      "verified": false,
      "lat": null,
      "lng": null
    },
    {
      "id": 95,
      "name": "DR. ANSARI ABDULREHMAN",
      "qualification": "",
      "phone": "8980845857",
      "hospital": "RIZWAN AHMED",
      "address": "RIZWAN AHMED, AL ASNAN MULTI-SPECIALITY DENTAL CLINIC G-36 ALISHAN COMPLEX NEAR SAAD LABORATORY, OLD DR ASIF SAMOL CLINIC BAKRASHERI SAGRAMPURA, Surat, Gujarat, India",
      "specialty": "SURGEON",
      "verified": false,
      "lat": null,
      "lng": null
    },
    {
      "id": 96,
      "name": "DR. AFTAB BANGDIWALA",
      "qualification": "",
      "phone": "9016024307",
      "hospital": "MUSKAN DENTAL CLINIC, UNN",
      "address": "MUSKAN DENTAL CLINIC, UNN, PATIYA, UNN,, Surat, Gujarat, India",
      "specialty": "SURGEON",
      "verified": false,
      "lat": null,
      "lng": null
    },
    {
      "id": 97,
      "name": "DR. RIYAZ GODIL",
      "qualification": "M.D.S ENDODONTICS",
      "phone": "7276268736",
      "hospital": "UNIQUE DENTAL CARE, RIVER",
      "address": "UNIQUE DENTAL CARE, RIVER, POINT APT NEW RANDER ROAD,, Surat, Gujarat, India",
      "specialty": "SURGEON",
      "verified": false,
      "lat": null,
      "lng": null
    },
    {
      "id": 98,
      "name": "DR. ANALHAQ SHAIKH",
      "qualification": "M.D.S ORTHODONTICS",
      "phone": "8951229881",
      "hospital": "PERFECT ORTHODONTICS,",
      "address": "PERFECT ORTHODONTICS,, Surat, Gujarat, India",
      "specialty": "SURGEON",
      "verified": false,
      "lat": null,
      "lng": null
    },
    {
      "id": 99,
      "name": "DR. REHANA THAKOR",
      "qualification": "M.D.S ORTHODONTIST",
      "phone": "9427647644",
      "hospital": "KANUGA DENTAL CLINIC",
      "address": "KANUGA DENTAL CLINIC, STATION ROAD KOSAMBA,, Surat, Gujarat, India",
      "specialty": "SURGEON",
      "verified": false,
      "lat": null,
      "lng": null
    },
    {
      "id": 100,
      "name": "DR. SARFARAZ MEMON",
      "qualification": "M.D.S PROSTHODONTIST",
      "phone": "9974901033",
      "hospital": "SAFINA DENTAL CARE AND",
      "address": "SAFINA DENTAL CARE AND, IMPLANT CENTRE OPP JUBILEEBAUG CIRCLE AM.DAVADI POLE FATEMA FAIZULLABHOY MDS ENDODONTIST, Surat, Gujarat, India",
      "specialty": "SURGEON",
      "verified": false,
      "lat": null,
      "lng": null
    },
    {
      "id": 101,
      "name": "DR AHMED KURESHI",
      "qualification": "BDS",
      "phone": "7974999986",
      "hospital": "8/11, FIRST FLOOR, SARAL",
      "address": "8/11, FIRST FLOOR, SARAL, HEALTH CARE, SASMI BHAVAN, BESIDE CHANDRIKA DRESSES, NEAR DKM CIRCLE, OPPOSITE GOPI TALAO, SURAT, Gujarat, India",
      "specialty": "SURGEON",
      "verified": false,
      "lat": null,
      "lng": null
    },
    {
      "id": 102,
      "name": "DR. AKIFA SHAHNAWAZ",
      "qualification": "",
      "phone": "8511786519",
      "hospital": "SHAIKH",
      "address": "SHAIKH, 9, RATAN PARK APT, OPP.RUSABH TOWER, BELOW PARIJAAT HOSPITAL, BESIDE INDIAN OIL PETROL PUMP, RANDER ROAD, ADAJAN PATIA, SURAT., Gujarat, India",
      "specialty": "SURGEON",
      "verified": false,
      "lat": null,
      "lng": null
    },
    {
      "id": 103,
      "name": "DR. AMMAR PATEL",
      "qualification": "",
      "phone": "7019769640",
      "hospital": "G/F -3, PATEL DENTAL CLINIC,",
      "address": "G/F -3, PATEL DENTAL CLINIC,, AASHIYANA SHOPPING, KIM CHARASTA,394110,, Surat, Gujarat, India",
      "specialty": "SURGEON",
      "verified": false,
      "lat": null,
      "lng": null
    },
    {
      "id": 104,
      "name": "DR. ANAS SABIR QURESHI",
      "qualification": "",
      "phone": "9428651286",
      "hospital": "RAHAT DENTAL CLINIC",
      "address": "RAHAT DENTAL CLINIC, BESIDES M 4 MARKET, OPP NAVKETAN PARK, BHATENAROAD SURAT,, Gujarat, India",
      "specialty": "SURGEON",
      "verified": false,
      "lat": null,
      "lng": null
    },
    {
      "id": 105,
      "name": "DR. ANDLEEB SAIYED",
      "qualification": "",
      "phone": "9825569943",
      "hospital": "NANA HOSPITAL,NEAR TIN",
      "address": "NANA HOSPITAL,NEAR TIN, BATTI, RANDER SURAT,, Gujarat, India",
      "specialty": "SURGEON",
      "verified": false,
      "lat": null,
      "lng": null
    },
    {
      "id": 106,
      "name": "DR. FAISAL SHAIKH",
      "qualification": "",
      "phone": "9978948849",
      "hospital": "HAPPY DENTAL, HAIR, COSMETIC",
      "address": "HAPPY DENTAL, HAIR, COSMETIC, CLINIC & IMPLANT CENTRE, 1ST FLOOR, SHAHIN COMPLEX, OPP KAZI HOSPITAL, RANITALAO MAIN ROAD, NEAR WEDDING SHOW ROOM LALGATE, SURAT, Gujarat, India",
      "specialty": "SURGEON",
      "verified": false,
      "lat": null,
      "lng": null
    },
    {
      "id": 107,
      "name": "DR. FAIYAZ GODIL",
      "qualification": "",
      "phone": "9974274861",
      "hospital": "RIVERPOINT, NEAR AL AMIN",
      "address": "RIVERPOINT, NEAR AL AMIN, MASJID, NEW RANDER GORAT ROAD, SURAT,, Gujarat, India",
      "specialty": "SURGEON",
      "verified": false,
      "lat": null,
      "lng": null
    },
    {
      "id": 108,
      "name": "DR. HANIFA MAHETA",
      "qualification": "",
      "phone": "9099057488",
      "hospital": "SARVAJANIK HOSPITAL,",
      "address": "SARVAJANIK HOSPITAL,, ANKLESHWAR,, Surat, Gujarat, India",
      "specialty": "SURGEON",
      "verified": false,
      "lat": null,
      "lng": null
    },
    {
      "id": 109,
      "name": "DR. HANNAN GODIL",
      "qualification": "",
      "phone": "8000557293",
      "hospital": "JASH POINT, SAGRAMPURA",
      "address": "JASH POINT, SAGRAMPURA, SURAT,, Gujarat, India",
      "specialty": "SURGEON",
      "verified": false,
      "lat": null,
      "lng": null
    },
    {
      "id": 110,
      "name": "DR. HAROON N GOSLA",
      "qualification": "",
      "phone": "9601151800",
      "hospital": "ORAL CARE DENTAL CLINIC",
      "address": "ORAL CARE DENTAL CLINIC, A-3 FIRDOUS TOWER OPP SUGAM SOC ADAJAN PATIYA SURAT, Gujarat, India",
      "specialty": "SURGEON",
      "verified": false,
      "lat": null,
      "lng": null
    },
    {
      "id": 111,
      "name": "DR. HUNAINAH KAPADIA",
      "qualification": "",
      "phone": "9638895308",
      "hospital": "AMENA SARVAJANIK HOSPITAL,",
      "address": "AMENA SARVAJANIK HOSPITAL,, UNN, SURAT,, Gujarat, India",
      "specialty": "SURGEON",
      "verified": false,
      "lat": null,
      "lng": null
    },
    {
      "id": 112,
      "name": "DR. HUZAIF PATEL",
      "qualification": "",
      "phone": "8511131769",
      "hospital": "PATEL DENTAL CARE,",
      "address": "PATEL DENTAL CARE,, Surat, Gujarat, India",
      "specialty": "SURGEON",
      "verified": false,
      "lat": null,
      "lng": null
    },
    {
      "id": 113,
      "name": "DR. MALIHA VORAJEE",
      "qualification": "",
      "phone": "9773007651",
      "hospital": "G-5, GALAXY HEIGHTS, BESIDE",
      "address": "G-5, GALAXY HEIGHTS, BESIDE, SANA CORNER, NEW RANDER ROAD, GORAT, SURAT,, Gujarat, India",
      "specialty": "SURGEON",
      "verified": false,
      "lat": null,
      "lng": null
    },
    {
      "id": 114,
      "name": "DR. MASHIRAH KHARADI",
      "qualification": "",
      "phone": "7041575599",
      "hospital": "SALABATPURA, VASFODA PUL,",
      "address": "SALABATPURA, VASFODA PUL,, SURAT,, Gujarat, India",
      "specialty": "SURGEON",
      "verified": false,
      "lat": null,
      "lng": null
    },
    {
      "id": 115,
      "name": "DR M. ILYAS MITHABHAI",
      "qualification": "",
      "phone": "9722335240",
      "hospital": "CURE 'N' CARE DENTAL CLINIC",
      "address": "CURE 'N' CARE DENTAL CLINIC, AND IMPLANT CENTRE 122, FIRST FLOOR, CITY CENTRE, NEAR TELEPHONE EXCHANGE BHARUCH -392001,, Surat, Gujarat, India",
      "specialty": "SURGEON",
      "verified": false,
      "lat": null,
      "lng": null
    },
    {
      "id": 116,
      "name": "DR. MOHAMMED IMRAN",
      "qualification": "",
      "phone": "9898100087",
      "hospital": "HANIFBHAI MANSURI",
      "address": "HANIFBHAI MANSURI, MOHAMMEDI DENTAL CLINIC 111,112,MOIN COMPLEX, OPPOSITE RIYAZ CAFE, JAMALPUR CHAKLA,, Surat, Gujarat, India",
      "specialty": "SURGEON",
      "verified": false,
      "lat": null,
      "lng": null
    },
    {
      "id": 117,
      "name": "DR. MOHMMED MAAZ PATEL",
      "qualification": "",
      "phone": "8866857012",
      "hospital": "SMILE TRENDZ DENTAL CARE",
      "address": "SMILE TRENDZ DENTAL CARE, SHOP NO 11 MAVIYA RESIDENCY NEW GORAT ROAD NEAR ALVI ROW HOUSE, SURAT GUJARAT,, Gujarat, India",
      "specialty": "SURGEON",
      "verified": false,
      "lat": null,
      "lng": null
    },
    {
      "id": 118,
      "name": "DR. MUNIYAMIN PATNI",
      "qualification": "",
      "phone": "9712576949",
      "hospital": "PHOOLWADI ROAD GULSHAN",
      "address": "PHOOLWADI ROAD GULSHAN, PARK SHOP NO 16, SURAT, Gujarat, India",
      "specialty": "SURGEON",
      "verified": false,
      "lat": null,
      "lng": null
    },
    {
      "id": 119,
      "name": "DR. MUSTAFA K FAKHRI",
      "qualification": "",
      "phone": "9426439519",
      "hospital": "MUSKAN DENTAL CLINIC &",
      "address": "MUSKAN DENTAL CLINIC &, IMPLANT CENTER, 1ST FLOOR, ABHISHEK PLAZA, ABOVE PROFESSIONAL COURIERS, STREET OPP AIR INDIA, KOTSAFIL ROAD, NR BHAGAL, SURAT-3,, Gujarat, India",
      "specialty": "SURGEON",
      "verified": false,
      "lat": null,
      "lng": null
    },
    {
      "id": 120,
      "name": "DR. MUSTAQUIM HAJI HANIF",
      "qualification": "",
      "phone": "9825276486",
      "hospital": "PADELA",
      "address": "PADELA, SMILE DENTAL CARE, BESIDES NOORANI MASJID, MITHIKHADI - SURAT,, Gujarat, India",
      "specialty": "SURGEON",
      "verified": false,
      "lat": null,
      "lng": null
    },
    {
      "id": 121,
      "name": "DR. NAFISA PATHAN",
      "qualification": "",
      "phone": "9924667059",
      "hospital": "CARE32 DENTAL CLINIC",
      "address": "CARE32 DENTAL CLINIC, UGAMAN STREET GANDEVI 396360,, Surat, Gujarat, India",
      "specialty": "SURGEON",
      "verified": false,
      "lat": null,
      "lng": null
    },
    {
      "id": 122,
      "name": "DR. NASRIN SAIDAZIM SHAIKH",
      "qualification": "",
      "phone": "8511676566",
      "hospital": "BLOCK NO 33, KAKA BA",
      "address": "BLOCK NO 33, KAKA BA, HOSPITAL, UTARAJ VILLAGE HANSOT,, Surat, Gujarat, India",
      "specialty": "SURGEON",
      "verified": false,
      "lat": null,
      "lng": null
    },
    {
      "id": 123,
      "name": "DR. NAWAZ SHARIF",
      "qualification": "",
      "phone": "8859126586",
      "hospital": "NAWAZ DENTAL CLINIC , PLOT",
      "address": "NAWAZ DENTAL CLINIC , PLOT, 42, NEAR MADINA MASJID , LIMBAYAT, SURAT,, Gujarat, India",
      "specialty": "SURGEON",
      "verified": false,
      "lat": null,
      "lng": null
    },
    {
      "id": 124,
      "name": "DR. NIHAL N MUNTAZER",
      "qualification": "",
      "phone": "9112095320",
      "hospital": "COMPLETE DENTAL CARE",
      "address": "COMPLETE DENTAL CARE, 102, RUCHITA COMPLEX, ATHUGAR STREET, OPP KADHIWALA HOSPITAL, NANPURA, SURAT,, Gujarat, India",
      "specialty": "SURGEON",
      "verified": false,
      "lat": null,
      "lng": null
    },
    {
      "id": 125,
      "name": "DR. NISHAN BUKHARI",
      "qualification": "",
      "phone": "8050828133",
      "hospital": "SHAHEE DENT O CARE DENTAL",
      "address": "SHAHEE DENT O CARE DENTAL, CLINIC 1ST FLOOR, ZAINA PALACE, OPP MASJID E SHAH SULEMANI, VARIYAVI BAZAR MAIN ROAD, SURAT - 395003,, Gujarat, India",
      "specialty": "SURGEON",
      "verified": false,
      "lat": null,
      "lng": null
    },
    {
      "id": 126,
      "name": "DR NOSHIN AHMED",
      "qualification": "B.D.S,",
      "phone": "9993327449",
      "hospital": "8/11 FIRST FLOOR, SARAL",
      "address": "8/11 FIRST FLOOR, SARAL, HEALTH CARE, SASMI BHAVAN, BESIDE CHANDRIKA DRESSES, NEAR DKM CIRCLE, OPPOSITE GOPI TALAO, SURAT., Gujarat, India",
      "specialty": "SURGEON",
      "verified": false,
      "lat": null,
      "lng": null
    },
    {
      "id": 127,
      "name": "DR. RIZWAN SHAIKH",
      "qualification": "",
      "phone": "9712743167",
      "hospital": "SHAFEEN DENTAL CARE,",
      "address": "SHAFEEN DENTAL CARE,, OPP PUNIT PAANI PARAB, NANPURA MAIN ROAD, SURAT, DIRECTORY 2022-23 FOR SOUTH GUJARAT ASSOCIATION OF MUSLIM DOCTORS Compiled By Dr Shahnavaz Kanuga                          Version 2.0                                         updated on 26/06/24.   28, Gujarat, India",
      "specialty": "SURGEON",
      "verified": false,
      "lat": null,
      "lng": null
    },
    {
      "id": 128,
      "name": "DR GAJALA Y.HAQ",
      "qualification": "",
      "phone": "8866857036",
      "hospital": "B. D. S,",
      "address": "B. D. S,, ADAJAN DENTAL CLINIC. SHOP NO 110, FAZAL SHOPPING CENTRE, OPPOSITE DHANMORA COMPLEX, ADAJAN PATIA, SURAT, Gujarat, India",
      "specialty": "SURGEON",
      "verified": false,
      "lat": null,
      "lng": null
    },
    {
      "id": 129,
      "name": "DR SHAGUFTA ANWAR",
      "qualification": "B.D.S,",
      "phone": "9033659509",
      "hospital": "MOTALA",
      "address": "MOTALA, SMILE DENTAL CARE, MOHAMMADI CLINIC, ZANDA CHAWK, TARSADI, KOSAMBA., Surat, Gujarat, India",
      "specialty": "SURGEON",
      "verified": false,
      "lat": null,
      "lng": null
    },
    {
      "id": 130,
      "name": "DR SHAHID HALAWALA",
      "qualification": "B.D.S,",
      "phone": "8200172616",
      "hospital": "373, SMILE DENTAL CARE, BESIDES",
      "address": "373, SMILE DENTAL CARE, BESIDES, NOORANI MASJID, NEW MAIN ROAD, OPPOSITE KAMRUNAGAR POLICE CHOWKILIMBAYAT, UDHNA, SURAT., Gujarat, India",
      "specialty": "SURGEON",
      "verified": false,
      "lat": null,
      "lng": null
    },
    {
      "id": 131,
      "name": "DR. FIRDOSHBANU YASAR",
      "qualification": "B.D.S,",
      "phone": "7984607194",
      "hospital": "PATEL",
      "address": "PATEL, M-FLOOR, RATNA CHINTAMANI APPT, MUGLISARA MAIN ROAD, NR I.P. MISSION SCHOOL, SURAT, Gujarat, India",
      "specialty": "SURGEON",
      "verified": false,
      "lat": null,
      "lng": null
    },
    {
      "id": 132,
      "name": "DR NAEMA PATEL AZAD",
      "qualification": "B.D.S,",
      "phone": "6352095825",
      "hospital": "ALIPORE SOCIAL WELFARE",
      "address": "ALIPORE SOCIAL WELFARE, TRUST HOSPITAL, NH 8, ALIPORE, CHIKHLI, NAVSARI, 396409, Surat, Gujarat, India",
      "specialty": "SURGEON",
      "verified": false,
      "lat": null,
      "lng": null
    },
    {
      "id": 133,
      "name": "DR. ZULKIF MANJOO",
      "qualification": "B.D.S",
      "phone": "9428745823",
      "hospital": "ODONTOCARE DENTAL CLINIC",
      "address": "ODONTOCARE DENTAL CLINIC, & IMPLANT CENTRE 12/1914, ZUBEDA MANZIL, OPP SIR J J ENGLISH SCHOOL, SHAHPORE, SURAT, Gujarat, India",
      "specialty": "SURGEON",
      "verified": false,
      "lat": null,
      "lng": null
    },
    {
      "id": 134,
      "name": "DR HAFSA ANALHAQ SHAIKH",
      "qualification": "B.D.S",
      "phone": "8200238402",
      "hospital": "PERFECT ORTHODONTICS",
      "address": "PERFECT ORTHODONTICS, Surat, Gujarat, India",
      "specialty": "SURGEON",
      "verified": false,
      "lat": null,
      "lng": null
    },
    {
      "id": 135,
      "name": "DR FARJANA PATEL",
      "qualification": "B.D.S,",
      "phone": "9913867926",
      "hospital": "DENTAL PALACE N IMPLANT",
      "address": "DENTAL PALACE N IMPLANT, CENTER, RANDER ROAD, BESIDE SHIVAM CYCLE, TADWADI, SURAT., Gujarat, India",
      "specialty": "SURGEON",
      "verified": false,
      "lat": null,
      "lng": null
    },
    {
      "id": 136,
      "name": "DR TARIK SIRAJ MIRZA",
      "qualification": "B.D.S",
      "phone": "8758803006",
      "hospital": "RAHAT DAR DENTAL CLINIC,",
      "address": "RAHAT DAR DENTAL CLINIC,, OPP. MAHIDHARPURA POLICE STATION, SURAT, Gujarat, India",
      "specialty": "SURGEON",
      "verified": false,
      "lat": null,
      "lng": null
    },
    {
      "id": 137,
      "name": "DR SUHEL LOKHANDWALA",
      "qualification": "B.D.S,",
      "phone": "9374136851",
      "hospital": "LOKHANDWALA DENTAL CARE",
      "address": "LOKHANDWALA DENTAL CARE, SHOP NO. 2, KAZI PALACE, OPP- HANEEZ RESTAURANT, PATEL MOTOR DRIVING SCHOOL LANE, KHATKIVAD, RANITALAO, SURAT., Gujarat, India",
      "specialty": "SURGEON",
      "verified": false,
      "lat": null,
      "lng": null
    },
    {
      "id": 138,
      "name": "DR. YAZNA ARBAZ SHAIKH",
      "qualification": "B.D.S,",
      "phone": "8160887139",
      "hospital": "",
      "address": "",
      "specialty": "SURGEON",
      "verified": false,
      "lat": null,
      "lng": null
    },
    {
      "id": 139,
      "name": "DR. SHAIKH DENTAL CLINIC",
      "qualification": "",
      "phone": "",
      "hospital": "",
      "address": "",
      "specialty": "SURGEON",
      "verified": false,
      "lat": null,
      "lng": null
    },
    {
      "id": 140,
      "name": "DR. ARBAZ MOHMMADALI",
      "qualification": "B.D.S",
      "phone": "9033129166",
      "hospital": "SHAIKH",
      "address": "SHAIKH, 4/779-83, GHASIYA BUILDING, 1ST FLOOR, OPP. MASKATI HOSPITAL, TOWER ROAD, SURAT-395003., Gujarat, India",
      "specialty": "SURGEON",
      "verified": false,
      "lat": null,
      "lng": null
    },
    {
      "id": 141,
      "name": "DR. SAMINA ZULKIF MANJOO",
      "qualification": "B.D.S",
      "phone": "9428869340",
      "hospital": "ODONTOCARE DENTAL CLINIC",
      "address": "ODONTOCARE DENTAL CLINIC, & IMPLANT CENTRE 12/1914, ZUBEDA MANZIL, OPP SIR J J ENGLISH SCHOOL, SHAHPORE, SURAT. ANISHABIBI VASIM SHAIKH, Gujarat, India",
      "specialty": "SURGEON",
      "verified": false,
      "lat": null,
      "lng": null
    },
    {
      "id": 142,
      "name": "DR SHAIKH DENTAL CLINIC",
      "qualification": "",
      "phone": "",
      "hospital": "104, FIRST FLOOR, ALLAHWALA",
      "address": "104, FIRST FLOOR, ALLAHWALA, COMPLEX NEAR RAJESHREE CITY CENTER, SAGRAMPURA, TALAVDI MAIN ROAD, SURAT., Gujarat, India",
      "specialty": "SURGEON",
      "verified": false,
      "lat": null,
      "lng": null
    },
    {
      "id": 143,
      "name": "DR VASIM SHAIKH",
      "qualification": "B.D.S & DIPLOMA OF COSMETOLOGY",
      "phone": "8460050464",
      "hospital": "",
      "address": "",
      "specialty": "SURGEON",
      "verified": false,
      "lat": null,
      "lng": null
    },
    {
      "id": 144,
      "name": "DR. S HAIKH CLINIC DENTAL",
      "qualification": "",
      "phone": "",
      "hospital": "AHMEDHAIR & COSMETIC LASER",
      "address": "AHMEDHAIR & COSMETIC LASER, 104, ALLAH WALA COMPLEX, 1ST FL00R, NAVSARI BAZAAR, SAGRAMPURA TALAVDI MAIN ROAD, SURAT., Gujarat, India",
      "specialty": "SURGEON",
      "verified": false,
      "lat": null,
      "lng": null
    },
    {
      "id": 145,
      "name": "DR. MOHAMMED S. AMIN",
      "qualification": "BDS & IMPLANTOLOGIST",
      "phone": "7567823347",
      "hospital": "AMIN DENTAL CLINIC AND",
      "address": "AMIN DENTAL CLINIC AND, IMPLANT CENTRE 4/3185, GREEN PARK BLDG, BEHIND MADRESAH TAIYEBIYAH SCHOOL, NEAR HAJOORI CHAMBERS, BEGUMPURA, ZAMPA BAZAAR, SURAT., Gujarat, India",
      "specialty": "SURGEON",
      "verified": false,
      "lat": null,
      "lng": null
    },
    {
      "id": 146,
      "name": "DR. NIDA FATEMA JAVID",
      "qualification": "B.D.S",
      "phone": "9265015244",
      "hospital": "AHMED KANUGA",
      "address": "AHMED KANUGA, Surat, Gujarat, India",
      "specialty": "SURGEON",
      "verified": false,
      "lat": null,
      "lng": null
    },
    {
      "id": 147,
      "name": "DR. ADIB KANUGA",
      "qualification": "M.B.B.S,",
      "phone": "9104663727",
      "hospital": "FEMI GENERAL HOSPITAL, OPP:",
      "address": "FEMI GENERAL HOSPITAL, OPP:, RAILWAY STATION, KIM-EAST- 394110, DIST: SURAT,, Gujarat, India",
      "specialty": "SURGEON",
      "verified": false,
      "lat": null,
      "lng": null
    },
    {
      "id": 148,
      "name": "DR. ADNAN SHAIKH",
      "qualification": "M.B.B.S,",
      "phone": "8389016565",
      "hospital": "AMENA HOSPITAL,",
      "address": "AMENA HOSPITAL,, UNN, SURAT, Gujarat, India",
      "specialty": "SURGEON",
      "verified": false,
      "lat": null,
      "lng": null
    },
    {
      "id": 149,
      "name": "DR. AHMED ALTAF LATIWALA",
      "qualification": "M.B.B.S,",
      "phone": "7405550763",
      "hospital": "LATIWALA CLINIC -5,",
      "address": "LATIWALA CLINIC -5,, ROYAL PALM, INDER PURA , KHATRIWAD, SURAT,, Gujarat, India",
      "specialty": "SURGEON",
      "verified": false,
      "lat": null,
      "lng": null
    },
    {
      "id": 150,
      "name": "DR. ASHHAD AKBAR PATEL",
      "qualification": "M.B.B.S,",
      "phone": "8999151748",
      "hospital": "BHARUCH BY PASS,",
      "address": "BHARUCH BY PASS,, Surat, Gujarat, India",
      "specialty": "FAMILY PHYSICIAN-ALLOPATH",
      "verified": false,
      "lat": null,
      "lng": null
    },
    {
      "id": 151,
      "name": "DR. AYMAN SAVAI",
      "qualification": "M.B.B.S,",
      "phone": "9978609081",
      "hospital": "GOLDEN GIFT HOSPITAL,",
      "address": "GOLDEN GIFT HOSPITAL,, NANAVAT, SURAT- 395003,, Gujarat, India",
      "specialty": "FAMILY PHYSICIAN-ALLOPATH",
      "verified": false,
      "lat": null,
      "lng": null
    },
    {
      "id": 152,
      "name": "DR. AZIZ MEMON",
      "qualification": "M.B.B.S,",
      "phone": "9825571646",
      "hospital": "GOOD LUCK SHOPPING CENTER",
      "address": "GOOD LUCK SHOPPING CENTER, BARDOLI,, Surat, Gujarat, India",
      "specialty": "FAMILY PHYSICIAN-ALLOPATH",
      "verified": false,
      "lat": null,
      "lng": null
    },
    {
      "id": 153,
      "name": "DR. BILAL MOTALA",
      "qualification": "M.B.B.S,",
      "phone": "7019603005",
      "hospital": "MOTALA DAY CARE CENTRE,",
      "address": "MOTALA DAY CARE CENTRE,, KOSAMBA (RS),, Surat, Gujarat, India",
      "specialty": "FAMILY PHYSICIAN-ALLOPATH",
      "verified": false,
      "lat": null,
      "lng": null
    },
    {
      "id": 154,
      "name": "DR. FAIZAL KURESHI",
      "qualification": "M.B.B.S,",
      "phone": "9537463300",
      "hospital": "ARAF HOSPITAL, KOSAMBA",
      "address": "ARAF HOSPITAL, KOSAMBA, Surat, Gujarat, India",
      "specialty": "FAMILY PHYSICIAN-ALLOPATH",
      "verified": false,
      "lat": null,
      "lng": null
    },
    {
      "id": 155,
      "name": "DR. FATEMA MOHAMED",
      "qualification": "M.B.B.S,",
      "phone": "9898493549",
      "hospital": "IMTIYAZ KANUNGA",
      "address": "IMTIYAZ KANUNGA, 4 SHISHA PALACE, NEAR JILANI APPARTMENT, NEW GORAT ROAD ,ADAJAN PATIYA, SURAT,, Gujarat, India",
      "specialty": "FAMILY PHYSICIAN-ALLOPATH",
      "verified": false,
      "lat": null,
      "lng": null
    },
    {
      "id": 156,
      "name": "DR. LAKDAWALA MOHAMED",
      "qualification": "M.B.B.S,",
      "phone": "8866718700",
      "hospital": "HASMI BASHIRAHMED",
      "address": "HASMI BASHIRAHMED, Surat, Gujarat, India",
      "specialty": "FAMILY PHYSICIAN-ALLOPATH",
      "verified": false,
      "lat": null,
      "lng": null
    },
    {
      "id": 157,
      "name": "DR. MAHIR IQBAL HAJARI",
      "qualification": "M.B.B.S,",
      "phone": "8459932723",
      "hospital": "",
      "address": "",
      "specialty": "FAMILY PHYSICIAN-ALLOPATH",
      "verified": false,
      "lat": null,
      "lng": null
    },
    {
      "id": 158,
      "name": "DR NAZIMUDDIN SAIYED",
      "qualification": "M.B.B.S, FCGP,(USA)",
      "phone": "9825447773",
      "hospital": "(DR MANUBHAI)",
      "address": "(DR MANUBHAI), 3/ 437C, MORKAS  STREET, ZAMPA BAZAR, SURAT 395003,, Gujarat, India",
      "specialty": "FAMILY PHYSICIAN-ALLOPATH",
      "verified": false,
      "lat": null,
      "lng": null
    },
    {
      "id": 159,
      "name": "DR. MARIYA A VORAJEE",
      "qualification": "M.B.B.S,",
      "phone": "9974565936",
      "hospital": "",
      "address": "",
      "specialty": "FAMILY PHYSICIAN-ALLOPATH",
      "verified": false,
      "lat": null,
      "lng": null
    },
    {
      "id": 160,
      "name": "DR. MARIYAM AHMAD BAWA",
      "qualification": "M.B.B.S,",
      "phone": "7016639882",
      "hospital": "S Y KAZI HOSPITAL AND",
      "address": "S Y KAZI HOSPITAL AND, MATERNITY HOME, ROYAL RESIDENCY, JITALI  TAL ANKLESHWAR DIST BHARUCH, Surat, Gujarat, India",
      "specialty": "FAMILY PHYSICIAN-ALLOPATH",
      "verified": false,
      "lat": null,
      "lng": null
    },
    {
      "id": 161,
      "name": "DR. MOHAMMED USMAN",
      "qualification": "M.B.B.S,",
      "phone": "9712170993",
      "hospital": "AAKHUNJI",
      "address": "AAKHUNJI, CIVIL HOSPITAL VALSAD,, Surat, Gujarat, India",
      "specialty": "FAMILY PHYSICIAN-ALLOPATH",
      "verified": false,
      "lat": null,
      "lng": null
    },
    {
      "id": 162,
      "name": "DR. MUHAMMAD RIZWAN M",
      "qualification": "M.B.B.S,",
      "phone": "9664889803",
      "hospital": "PATHAN",
      "address": "PATHAN, Surat, Gujarat, India",
      "specialty": "FAMILY PHYSICIAN-ALLOPATH",
      "verified": false,
      "lat": null,
      "lng": null
    },
    {
      "id": 163,
      "name": "DR UZMA SKIN HAIR LASER CLINIC",
      "qualification": "",
      "phone": "",
      "hospital": "7, 1ST FLOOR, RAJSHREE HALL,",
      "address": "7, 1ST FLOOR, RAJSHREE HALL,, SAGRAMPURA. NEW KAMELA, SANJAY NAGAR, UMERWADA. AL SHIFA CLINIC, Surat, Gujarat, India",
      "specialty": "FAMILY PHYSICIAN-ALLOPATH",
      "verified": false,
      "lat": null,
      "lng": null
    },
    {
      "id": 164,
      "name": "DR. MUHAMMED UMAR",
      "qualification": "M.B.B.S,",
      "phone": "9925105786",
      "hospital": "ZIYAUDDIN JARULLAH",
      "address": "ZIYAUDDIN JARULLAH, AT GMERS MEDICAL COLLEGE, VALSAD,, Surat, Gujarat, India",
      "specialty": "FAMILY PHYSICIAN-ALLOPATH",
      "verified": false,
      "lat": null,
      "lng": null
    },
    {
      "id": 165,
      "name": "DR. MUHAMMED ZAQWAN",
      "qualification": "M.B.B.S,",
      "phone": "8401404017",
      "hospital": "SHAIKH",
      "address": "SHAIKH, SHIFA HOSPITAL TADKESHWER TA - MANDVI, DIST -SURAT,, Gujarat, India",
      "specialty": "FAMILY PHYSICIAN-ALLOPATH",
      "verified": false,
      "lat": null,
      "lng": null
    },
    {
      "id": 166,
      "name": "DR. MUNTAZIR AHMED SHAIKH",
      "qualification": "M.B.B.S,",
      "phone": "9599132756",
      "hospital": "",
      "address": "",
      "specialty": "FAMILY PHYSICIAN-ALLOPATH",
      "verified": false,
      "lat": null,
      "lng": null
    },
    {
      "id": 167,
      "name": "DR. PATEL LUBNABANU",
      "qualification": "M.B.B.S,",
      "phone": "7359002881",
      "hospital": "LUKMAN",
      "address": "LUKMAN, Surat, Gujarat, India",
      "specialty": "FAMILY PHYSICIAN-ALLOPATH",
      "verified": false,
      "lat": null,
      "lng": null
    },
    {
      "id": 168,
      "name": "DR. PATHAN MAHMAD SAHIR",
      "qualification": "M.B.B.S,",
      "phone": "9725178114",
      "hospital": "KHAN SAID KHAN",
      "address": "KHAN SAID KHAN, MEDICAL OFFICER IN NEW CIVIL HOSPITAL, MAJURA GATE, SURAT - 395001,, Gujarat, India",
      "specialty": "FAMILY PHYSICIAN-ALLOPATH",
      "verified": false,
      "lat": null,
      "lng": null
    },
    {
      "id": 169,
      "name": "DR. RAMIZ M MEMON",
      "qualification": "M.B.B.S,",
      "phone": "8238034081",
      "hospital": "SADIK CLINIC,",
      "address": "SADIK CLINIC,, 101, AL FARIDI PALACE , MOMNAWAD , GOPIPURA, SURAT, Gujarat, India",
      "specialty": "FAMILY PHYSICIAN-ALLOPATH",
      "verified": false,
      "lat": null,
      "lng": null
    },
    {
      "id": 170,
      "name": "DR. RIZWAN ALAM GAUHAR",
      "qualification": "M.B.B.S,",
      "phone": "8980671556",
      "hospital": "ALAM SHAIKH",
      "address": "ALAM SHAIKH, SHIFA CARE, TALAVDI, SAGRAMPURA, SURAT, Gujarat, India",
      "specialty": "FAMILY PHYSICIAN-ALLOPATH",
      "verified": false,
      "lat": null,
      "lng": null
    },
    {
      "id": 171,
      "name": "DR. RUKHSAAR Z THAKOR",
      "qualification": "M.B.B.S,",
      "phone": "9727758245",
      "hospital": "ZAHRA CLINIC",
      "address": "ZAHRA CLINIC, GROUND FLOOR, NAZNIN PALACE, BESIDES NARIMAN HOME, SHAHPORE, SURAT, Gujarat, India",
      "specialty": "FAMILY PHYSICIAN-ALLOPATH",
      "verified": false,
      "lat": null,
      "lng": null
    },
    {
      "id": 172,
      "name": "DR. SABA KHATRI",
      "qualification": "M.B.B.S,",
      "phone": "9904789850",
      "hospital": "WORKING AS INTERN IN NEW",
      "address": "WORKING AS INTERN IN NEW, CIVIL HOSPITAL, SURAT,, Gujarat, India",
      "specialty": "FAMILY PHYSICIAN-ALLOPATH",
      "verified": false,
      "lat": null,
      "lng": null
    },
    {
      "id": 173,
      "name": "DR. SAEED LAKDAWALA",
      "qualification": "M.B.B.S,",
      "phone": "7016916636",
      "hospital": "GOPIPURA, MONNAWAD,",
      "address": "GOPIPURA, MONNAWAD,, SURAT, GUJARAT INDIA 395001,, Gujarat, India",
      "specialty": "FAMILY PHYSICIAN-ALLOPATH",
      "verified": false,
      "lat": null,
      "lng": null
    },
    {
      "id": 174,
      "name": "DR. SAHISTA FARID GAJIA",
      "qualification": "M.B.B.S,",
      "phone": "9687023444",
      "hospital": "JAMNABA HOSPITAL,",
      "address": "JAMNABA HOSPITAL,, BARDOLI, Surat, Gujarat, India",
      "specialty": "FAMILY PHYSICIAN-ALLOPATH",
      "verified": false,
      "lat": null,
      "lng": null
    },
    {
      "id": 175,
      "name": "DR. SHABANA KALANIYA",
      "qualification": "M.B.B.S,",
      "phone": "9737060690",
      "hospital": "MEDICAL OFFICER,",
      "address": "MEDICAL OFFICER,, Surat, Gujarat, India",
      "specialty": "FAMILY PHYSICIAN-ALLOPATH",
      "verified": false,
      "lat": null,
      "lng": null
    },
    {
      "id": 176,
      "name": "DR. SHAHNAAZ A MOTALA",
      "qualification": "M.B.B.S,",
      "phone": "9898197147",
      "hospital": "MOHAMMADI CLINIC",
      "address": "MOHAMMADI CLINIC, ZANDA CHOWK, KOSAMBA, Surat, Gujarat, India",
      "specialty": "FAMILY PHYSICIAN-ALLOPATH",
      "verified": false,
      "lat": null,
      "lng": null
    },
    {
      "id": 177,
      "name": "DR. SHAIKH MOIN FAKIR",
      "qualification": "M.B.B.S,",
      "phone": "9898524428",
      "hospital": "MOHAMMED",
      "address": "MOHAMMED, KIRAN HOSPITAL, SURAT, Gujarat, India",
      "specialty": "FAMILY PHYSICIAN-ALLOPATH",
      "verified": false,
      "lat": null,
      "lng": null
    },
    {
      "id": 178,
      "name": "DR. SAJID AHMED JUTAWALA",
      "qualification": "M.B.B.S, CTCCM, INTENSIVIST",
      "phone": "9898347667",
      "hospital": "NIRMAL HOSPITAL, SURAT",
      "address": "NIRMAL HOSPITAL, SURAT, Gujarat, India",
      "specialty": "FAMILY PHYSICIAN-ALLOPATH",
      "verified": false,
      "lat": null,
      "lng": null
    },
    {
      "id": 179,
      "name": "DR. MOHAMMED SAEED",
      "qualification": "M.B.B.S +PG CIH",
      "phone": "9879044292",
      "hospital": "SHAIKH",
      "address": "SHAIKH, NEXT TO SMC PRATHAMIK SHAALA, BETHI COLONY MITHI KHADI SURAT, Gujarat, India",
      "specialty": "FAMILY PHYSICIAN-ALLOPATH",
      "verified": false,
      "lat": null,
      "lng": null
    },
    {
      "id": 180,
      "name": "DR. ARZOO SHAIKH",
      "qualification": "M.B.B.S, PGCIH (INDUSTRIAL",
      "phone": "",
      "hospital": "",
      "address": "",
      "specialty": "FAMILY PHYSICIAN-ALLOPATH",
      "verified": false,
      "lat": null,
      "lng": null
    },
    {
      "id": 181,
      "name": "DR. NAWAZ PADELA",
      "qualification": "",
      "phone": "",
      "hospital": "",
      "address": "",
      "specialty": "FAMILY PHYSICIAN-ALLOPATH",
      "verified": false,
      "lat": null,
      "lng": null
    },
    {
      "id": 182,
      "name": "DR. BILAL HIDAYAT ARAF",
      "qualification": "",
      "phone": "",
      "hospital": "",
      "address": "",
      "specialty": "FAMILY PHYSICIAN-ALLOPATH",
      "verified": false,
      "lat": null,
      "lng": null
    },
    {
      "id": 183,
      "name": "DR. ABDUL RAHMAN KHAN",
      "qualification": "M.D (EH MEDICINE)",
      "phone": "9898657045",
      "hospital": "HONEY PARK APARTMENTS,",
      "address": "HONEY PARK APARTMENTS,, SAYIDWADA SHAHPUR, NEAR PIERRE KAJOORI MASJID SURAT., Gujarat, India",
      "specialty": "FAMILY PHYSICIAN-ALLOPATH",
      "verified": false,
      "lat": null,
      "lng": null
    },
    {
      "id": 184,
      "name": "DR. MOHAMED IMRAN N",
      "qualification": "",
      "phone": "",
      "hospital": "KANUGA",
      "address": "KANUGA, Surat, Gujarat, India",
      "specialty": "FAMILY PHYSICIAN-ALLOPATH",
      "verified": false,
      "lat": null,
      "lng": null
    },
    {
      "id": 185,
      "name": "DR. MOHMAD ASIF PATHAN",
      "qualification": "M.D, DEM",
      "phone": "8866000000",
      "hospital": "SEHAT CLINIC, VARIYALI BAZAR,",
      "address": "SEHAT CLINIC, VARIYALI BAZAR,, GULSHAN PARK, SURAT, Gujarat, India",
      "specialty": "FAMILY PHYSICIAN-ALLOPATH",
      "verified": false,
      "lat": null,
      "lng": null
    },
    {
      "id": 186,
      "name": "DR. JUNAID KHAN",
      "qualification": "",
      "phone": "",
      "hospital": "",
      "address": "",
      "specialty": "FAMILY PHYSICIAN-ALLOPATH",
      "verified": false,
      "lat": null,
      "lng": null
    },
    {
      "id": 187,
      "name": "DR TAHER ESA DOCTOR",
      "qualification": "MBBS,",
      "phone": "9879652526",
      "hospital": "(JANGBARWALA)",
      "address": "(JANGBARWALA), 3/845, 2ND FLOOR, JANGBARWALA CLINIC, ABOVE CHHOTE MIYA RESTAURANT, KARWA ROAD, ZAMPA BAZAR, SURAT., Gujarat, India",
      "specialty": "FAMILY PHYSICIAN-ALLOPATH",
      "verified": false,
      "lat": null,
      "lng": null
    },
    {
      "id": 188,
      "name": "DR. WASIM HAFESJI",
      "qualification": "MBBS, DCH (PURSUING)",
      "phone": "7383725252",
      "hospital": "",
      "address": "",
      "specialty": "FAMILY PHYSICIAN-ALLOPATH",
      "verified": false,
      "lat": null,
      "lng": null
    },
    {
      "id": 189,
      "name": "DR. AMAAN KAPADIA",
      "qualification": "MBBS,",
      "phone": "9227333007",
      "hospital": "ZAHRA CLINIC, SHAHPUR, SURAT.",
      "address": "ZAHRA CLINIC, SHAHPUR, SURAT., Gujarat, India",
      "specialty": "FAMILY PHYSICIAN-ALLOPATH",
      "verified": false,
      "lat": null,
      "lng": null
    },
    {
      "id": 190,
      "name": "DR. ILYAS IBRAHIM GIRACH",
      "qualification": "M.B.B.S., C.I.H.,",
      "phone": "9825364157",
      "hospital": "FAROOQI FLATS C, SHOP NO-8",
      "address": "FAROOQI FLATS C, SHOP NO-8, ADAJAN PATIA, SURAT., Gujarat, India",
      "specialty": "FAMILY PHYSICIAN-ALLOPATH",
      "verified": false,
      "lat": null,
      "lng": null
    },
    {
      "id": 191,
      "name": "DR. AFTABHUSEN ZAKIRHUSEN",
      "qualification": "M.B.B.S.,",
      "phone": "9909853507",
      "hospital": "MEMON",
      "address": "MEMON, DIRECTORY 2022-23 FOR SOUTH GUJARAT ASSOCIATION OF MUSLIM DOCTORS Compiled By Dr Shahnavaz Kanuga                          Version 2.0                                         updated on 26/06/24.   33, Surat, Gujarat, India",
      "specialty": "FAMILY PHYSICIAN-ALLOPATH",
      "verified": false,
      "lat": null,
      "lng": null
    },
    {
      "id": 192,
      "name": "DR SHAHIN HALAWALA",
      "qualification": "M.B.B.S,",
      "phone": "8898898977",
      "hospital": "AYUSHMAN HEALTH CENTER,",
      "address": "AYUSHMAN HEALTH CENTER,, OPPOSITE POTIGADWAD MASJID, RUWALA TEKRA, BHAGAL., Surat, Gujarat, India",
      "specialty": "FAMILY PHYSICIAN-ALLOPATH",
      "verified": false,
      "lat": null,
      "lng": null
    },
    {
      "id": 193,
      "name": "DR TANVIR MOHMED MEMAN",
      "qualification": "M.B.B.S, PGCIH",
      "phone": "7020368534",
      "hospital": "PHC AMLIDEM, AT- LIMDHA,",
      "address": "PHC AMLIDEM, AT- LIMDHA,, POST-TARAPUR, TAL-MANDVI, DIST-SURAT, 394440. YASMIN FARUK LIMALIA M.B.B.S, Gujarat, India",
      "specialty": "FAMILY PHYSICIAN-ALLOPATH",
      "verified": false,
      "lat": null,
      "lng": null
    },
    {
      "id": 194,
      "name": "DR. SARAH M.SALIM BANA",
      "qualification": "M.B.B.S",
      "phone": "9607368450",
      "hospital": "",
      "address": "",
      "specialty": "FAMILY PHYSICIAN-ALLOPATH",
      "verified": false,
      "lat": null,
      "lng": null
    },
    {
      "id": 195,
      "name": "DR TALHA SHAIKH",
      "qualification": "M.B.B.S",
      "phone": "9724525500",
      "hospital": "SAGRAMPURA TALAWDI OPP",
      "address": "SAGRAMPURA TALAWDI OPP, ZEBA PERFUME SURAT, Gujarat, India",
      "specialty": "FAMILY PHYSICIAN-ALLOPATH",
      "verified": false,
      "lat": null,
      "lng": null
    },
    {
      "id": 196,
      "name": "DR. AHMED SHABBIR SAVANI",
      "qualification": "B.A.M.S; M.D (AYU); CRAV -",
      "phone": "7878949702",
      "hospital": "NEW DELHI,",
      "address": "NEW DELHI,, BLESSING HOSPITAL, HONEY PARK ROAD, SURAT; VISITING AYURVEDA CONSULTANT,, Gujarat, India",
      "specialty": "FAMILY PHYSICIAN-ALLOPATH",
      "verified": false,
      "lat": null,
      "lng": null
    },
    {
      "id": 197,
      "name": "DR. AKBAR PATEL",
      "qualification": "B.A.M.S",
      "phone": "9825960935",
      "hospital": "MADAN MOHAN",
      "address": "MADAN MOHAN, COMPLEX,UDHANA DARWAJA, SURAT,, Gujarat, India",
      "specialty": "FAMILY PHYSICIAN-ALLOPATH",
      "verified": false,
      "lat": null,
      "lng": null
    },
    {
      "id": 198,
      "name": "DR. AKHTARHUSAIN",
      "qualification": "B.A.M.S",
      "phone": "9824124053",
      "hospital": "AZAMHUSAIN MALIK",
      "address": "AZAMHUSAIN MALIK, AAZMI CLINIC, LANGARWAD MAKHDUMPURA, OPP NEW INCOME TAX OFFICE, NAVSARI- 396445,, Surat, Gujarat, India",
      "specialty": "FAMILY PHYSICIAN-ALLOPATH",
      "verified": false,
      "lat": null,
      "lng": null
    },
    {
      "id": 199,
      "name": "DR. HANIF BANGLAWALA",
      "qualification": "B.A.M.S L.L.B.",
      "phone": "9824359540",
      "hospital": "MEENAZ CLINIC, GOPIPURA",
      "address": "MEENAZ CLINIC, GOPIPURA, MOMINWAD, NR SAGRAMPURA POLICE CHOWKI, SURAT, Gujarat, India",
      "specialty": "FAMILY PHYSICIAN-AYURVEDA",
      "verified": false,
      "lat": null,
      "lng": null
    },
    {
      "id": 200,
      "name": "DR. SALIM SHAIKH",
      "qualification": "B.A.M.S",
      "phone": "9909052233",
      "hospital": "RAHAT CLINIC, HODI BANGLA,",
      "address": "RAHAT CLINIC, HODI BANGLA,, SURAT, Gujarat, India",
      "specialty": "FAMILY PHYSICIAN-AYURVEDA",
      "verified": false,
      "lat": null,
      "lng": null
    },
    {
      "id": 201,
      "name": "DR. SHEEMA PATEL",
      "qualification": "B.A.M.S",
      "phone": "6351200188",
      "hospital": "",
      "address": "",
      "specialty": "FAMILY PHYSICIAN-AYURVEDA",
      "verified": false,
      "lat": null,
      "lng": null
    },
    {
      "id": 202,
      "name": "DR. SOHEL Y. NAGORI",
      "qualification": "B.A.M.S",
      "phone": "9157066989",
      "hospital": "ANAM CLINIC, RAHAT PALACE,",
      "address": "ANAM CLINIC, RAHAT PALACE,, SHOP NO 4, OPP. VED DARWAJA LENDING, NEAR HODI BUNGLOW, SURAT., Gujarat, India",
      "specialty": "FAMILY PHYSICIAN-AYURVEDA",
      "verified": false,
      "lat": null,
      "lng": null
    },
    {
      "id": 203,
      "name": "DR. SUHEL DALAL",
      "qualification": "B.A.M.S",
      "phone": "9879428494",
      "hospital": "SANJIVANI AYURVEDA AND",
      "address": "SANJIVANI AYURVEDA AND, PANCH KARMA HOSPITAL, ANAND MAHAL ROAD, SURAT, Gujarat, India",
      "specialty": "FAMILY PHYSICIAN-AYURVEDA",
      "verified": false,
      "lat": null,
      "lng": null
    },
    {
      "id": 204,
      "name": "DR. FARHIN NIHAL MUNTAZER",
      "qualification": "B.A.M.S",
      "phone": "7016603301",
      "hospital": "COMPLETE FAMILY CARE",
      "address": "COMPLETE FAMILY CARE, B2, BAG -A -YUSUF APARTMENT, TURAVA MOHALLO, SAIYYADPURA, SURAT., Gujarat, India",
      "specialty": "FAMILY PHYSICIAN-AYURVEDA",
      "verified": false,
      "lat": null,
      "lng": null
    },
    {
      "id": 205,
      "name": "DR. MOHAMMED IMRAN H",
      "qualification": "M.D AYU,",
      "phone": "9081079597",
      "hospital": "CONTRACTOR",
      "address": "CONTRACTOR, RANDER,, Surat, Gujarat, India",
      "specialty": "FAMILY PHYSICIAN-AYURVEDA",
      "verified": false,
      "lat": null,
      "lng": null
    },
    {
      "id": 206,
      "name": "DR. NAJIB KHAN Y. PATHAN",
      "qualification": "B.A.M.S.,",
      "phone": "9825810275",
      "hospital": "7/1507, FARHEEN CLINIC,",
      "address": "7/1507, FARHEEN CLINIC,, VARIYAVI BAZAR MAIN ROAD, NEAR HODI BUNGLOW, SURAT, Gujarat, India",
      "specialty": "FAMILY PHYSICIAN-AYURVEDA",
      "verified": false,
      "lat": null,
      "lng": null
    },
    {
      "id": 207,
      "name": "DR. REHANA DAWJEE",
      "qualification": "B.A.M.S BLS, DIABETES",
      "phone": "9723168073",
      "hospital": "REVERSAL EXPERT",
      "address": "REVERSAL EXPERT, ZAIN CLINIC, 715, MAYAT STREET, BEHIND JUMMA MASJID, VARIAV, SURAT, Gujarat, India",
      "specialty": "FAMILY PHYSICIAN-AYURVEDA",
      "verified": false,
      "lat": null,
      "lng": null
    },
    {
      "id": 208,
      "name": "DR. USAMAH DANTROLIA",
      "qualification": "B.A.M.S COSMETOLOGY,",
      "phone": "7440044008",
      "hospital": "B-1, ADARSH SOCIETY, MG",
      "address": "B-1, ADARSH SOCIETY, MG, ROAD, BARDOLI,, Surat, Gujarat, India",
      "specialty": "FAMILY PHYSICIAN-AYURVEDA",
      "verified": false,
      "lat": null,
      "lng": null
    },
    {
      "id": 209,
      "name": "DR. YUSUF SHEIKH",
      "qualification": "B.A.M.S",
      "phone": "9825588405",
      "hospital": "ESIS GENERAL HOSPITAL, RING",
      "address": "ESIS GENERAL HOSPITAL, RING, ROAD, SURAT., Gujarat, India",
      "specialty": "FAMILY PHYSICIAN-AYURVEDA",
      "verified": false,
      "lat": null,
      "lng": null
    },
    {
      "id": 210,
      "name": "DR. MOHAMMAD EJAZ MULLA",
      "qualification": "B.A.M.S",
      "phone": "9016779337",
      "hospital": "SHABNAM CLINIC NEAR ALI",
      "address": "SHABNAM CLINIC NEAR ALI, MASJID TIRUPATI NAGAR UNN PATIYA, SURAT. DIRECTORY 2022-23 FOR SOUTH GUJARAT ASSOCIATION OF MUSLIM DOCTORS Compiled By Dr Shahnavaz Kanuga                          Version 2.0                                         updated on 26/06/24.   35, Gujarat, India",
      "specialty": "FAMILY PHYSICIAN-AYURVEDA",
      "verified": false,
      "lat": null,
      "lng": null
    },
    {
      "id": 211,
      "name": "DR AZEEM KURESHI",
      "qualification": "B.A.M.S",
      "phone": "8000226499",
      "hospital": "AL SHIFA CLINIC",
      "address": "AL SHIFA CLINIC, PRATAP NAGAR, LIBAYAT, Surat, Gujarat, India",
      "specialty": "FAMILY PHYSICIAN-AYURVEDA",
      "verified": false,
      "lat": null,
      "lng": null
    },
    {
      "id": 212,
      "name": "DR. M A MEMON",
      "qualification": "",
      "phone": "9227752092",
      "hospital": "B.S.A.M.",
      "address": "B.S.A.M., SADIK CLINIC 101 AL FARIDI PALACE, NEAR TANDEL MASJID, MOMMAWAD GOPIPURA, Surat, Gujarat, India",
      "specialty": "FAMILY PHYSICIAN-AYURVEDA",
      "verified": false,
      "lat": null,
      "lng": null
    },
    {
      "id": 213,
      "name": "DR. AAMENA S BHESANIYA",
      "qualification": "B.H.M.S (GOLD MEDALIST),",
      "phone": "9898415919",
      "hospital": "EXCEL HOMOEOPATHIC CLINIC,",
      "address": "EXCEL HOMOEOPATHIC CLINIC,, SHOP NO -1, FATEMA TOWER, ADAJAN, NEW RANDER ROAD, SURAT,, Gujarat, India",
      "specialty": "FAMILY PHYSICIAN-AYURVEDA",
      "verified": false,
      "lat": null,
      "lng": null
    },
    {
      "id": 214,
      "name": "DR. AAMENA SHEHZAD",
      "qualification": "B.H.M.S,",
      "phone": "8200237697",
      "hospital": "POTHIAWALA",
      "address": "POTHIAWALA, SHOP NO 7, FIRDAUS TOWER, ABOVE SUNRISE MEDICAL , ADAJAN PATIYA , SURAT,, Gujarat, India",
      "specialty": "FAMILY PHYSICIAN-AYURVEDA",
      "verified": false,
      "lat": null,
      "lng": null
    },
    {
      "id": 215,
      "name": "DR. ABBAS MOTALA",
      "qualification": "D.H.M.S,",
      "phone": "9825093809",
      "hospital": "OPP RIKSHA STAND, JUNA",
      "address": "OPP RIKSHA STAND, JUNA, KOSAMBA, Surat, Gujarat, India",
      "specialty": "FAMILY PHYSICIAN-AYURVEDA",
      "verified": false,
      "lat": null,
      "lng": null
    },
    {
      "id": 216,
      "name": "DR. ABDULSAMAD TIMOL",
      "qualification": "B.H.M.S,",
      "phone": "8928592012",
      "hospital": "NAVAPUR,",
      "address": "NAVAPUR,, Surat, Gujarat, India",
      "specialty": "FAMILY PHYSICIAN-AYURVEDA",
      "verified": false,
      "lat": null,
      "lng": null
    },
    {
      "id": 217,
      "name": "DR. AFTAB MOTIWALA",
      "qualification": "B.H.M.S,",
      "phone": "9714241314",
      "hospital": "AMAN CLINIC, 20 - AMI SOCIETY",
      "address": "AMAN CLINIC, 20 - AMI SOCIETY, GORAT, CAUSEWAY ROAD SURAT,, Gujarat, India",
      "specialty": "FAMILY PHYSICIAN-AYURVEDA",
      "verified": false,
      "lat": null,
      "lng": null
    },
    {
      "id": 218,
      "name": "DR. AHMED RAZA",
      "qualification": "B.H.M.S, M.B.A",
      "phone": "8735947896",
      "hospital": "DIVINE HIBA HOSPITAL, SURAT",
      "address": "DIVINE HIBA HOSPITAL, SURAT, Gujarat, India",
      "specialty": "FAMILY PHYSICIAN-AYURVEDA",
      "verified": false,
      "lat": null,
      "lng": null
    },
    {
      "id": 219,
      "name": "DR. AISHA WADIWALA",
      "qualification": "B.H.M.S,",
      "phone": "9016877172",
      "hospital": "G-3, WADIWALA MANSION,",
      "address": "G-3, WADIWALA MANSION,, AMLIPURA, RANDER, SURAT., Gujarat, India",
      "specialty": "FAMILY PHYSICIAN-AYURVEDA",
      "verified": false,
      "lat": null,
      "lng": null
    },
    {
      "id": 220,
      "name": "DR. NAZIBAH Z. PATHAN",
      "qualification": "",
      "phone": "8469697050",
      "hospital": "B. H. M. S,",
      "address": "B. H. M. S,, MIRAYAH HOSPITAL, Surat, Gujarat, India",
      "specialty": "FAMILY PHYSICIAN-AYURVEDA",
      "verified": false,
      "lat": null,
      "lng": null
    },
    {
      "id": 221,
      "name": "DR. AMAN SHABBIR MULTANI",
      "qualification": "B.H.M.S,",
      "phone": "8780336491",
      "hospital": "",
      "address": "",
      "specialty": "FAMILY PHYSICIAN-HOMEOPATH",
      "verified": false,
      "lat": null,
      "lng": null
    },
    {
      "id": 222,
      "name": "DR. AMANULLA KHAN M PATHAN",
      "qualification": "D.H.M.S,",
      "phone": "9898613747",
      "hospital": "AMAN CLINIC, G1 G2 NAVJEEVAN",
      "address": "AMAN CLINIC, G1 G2 NAVJEEVAN, APPARMENT,  OPP. OLD TALEPHONE EXCHANGE, MOTA MANDIR ROAD KOSAMBA (R S.), Surat, Gujarat, India",
      "specialty": "FAMILY PHYSICIAN-HOMEOPATH",
      "verified": false,
      "lat": null,
      "lng": null
    },
    {
      "id": 223,
      "name": "DR. ANAS K BADI",
      "qualification": "B.H.M.S,",
      "phone": "9662353287",
      "hospital": "RAINBOW CHILDREN HOSPITAL",
      "address": "RAINBOW CHILDREN HOSPITAL, LAKKD KOT, GALE MANDI, CINEMA ROAD, SURAT,, Gujarat, India",
      "specialty": "FAMILY PHYSICIAN-HOMEOPATH",
      "verified": false,
      "lat": null,
      "lng": null
    },
    {
      "id": 224,
      "name": "DR. ANISH MEMON",
      "qualification": "B.H.M.S,",
      "phone": "6352353894",
      "hospital": "RABBANA PLAZA, OPP ALISHAN",
      "address": "RABBANA PLAZA, OPP ALISHAN, COMPLEX, BAKRA SHERI, SAGRAMPURA, SURAT,, Gujarat, India",
      "specialty": "FAMILY PHYSICIAN-HOMEOPATH",
      "verified": false,
      "lat": null,
      "lng": null
    },
    {
      "id": 225,
      "name": "DR. ANJUMAN",
      "qualification": "B.H.M.S,",
      "phone": "7990664835",
      "hospital": "ANJUM CLINIC",
      "address": "ANJUM CLINIC, SHOP NO 2, MARIYA APP., OPP ASHRAFIYA MADHRESAH, BALAPIR ROAD, RANDER, SURAT,, Gujarat, India",
      "specialty": "FAMILY PHYSICIAN-HOMEOPATH",
      "verified": false,
      "lat": null,
      "lng": null
    },
    {
      "id": 226,
      "name": "DR. ANWAR SULEMAN MOTALA",
      "qualification": "D.H.M.S,",
      "phone": "9898031426",
      "hospital": "MOHAMMADI CLINIC",
      "address": "MOHAMMADI CLINIC, ZANDA CHOWK, KOSAMBA(RS),, Surat, Gujarat, India",
      "specialty": "FAMILY PHYSICIAN-HOMEOPATH",
      "verified": false,
      "lat": null,
      "lng": null
    },
    {
      "id": 227,
      "name": "DR. ARSHAD BIDIWALA",
      "qualification": "B.H.M.S,",
      "phone": "8401166920",
      "hospital": "JILANI CLINIC, MADINA MASJID,",
      "address": "JILANI CLINIC, MADINA MASJID,, LIMBAYAT, SURAT, Gujarat, India",
      "specialty": "FAMILY PHYSICIAN-HOMEOPATH",
      "verified": false,
      "lat": null,
      "lng": null
    },
    {
      "id": 228,
      "name": "DR. ASAHAB ANSARI",
      "qualification": "D.H.M.S,",
      "phone": "9904398032",
      "hospital": "ANSARI CLINIC, UNN CHAUKADI,",
      "address": "ANSARI CLINIC, UNN CHAUKADI,, NEAR SABJI MARKET, UNN PATIA, SURAT,, Gujarat, India",
      "specialty": "FAMILY PHYSICIAN-HOMEOPATH",
      "verified": false,
      "lat": null,
      "lng": null
    },
    {
      "id": 229,
      "name": "DR. ASFAQ AHMED H SUBEDAR",
      "qualification": "M.D (HOM),",
      "phone": "9824774456",
      "hospital": "9/13 A-2, AMLIPURA STREET,",
      "address": "9/13 A-2, AMLIPURA STREET,, RANDER, SURAT-5,, Gujarat, India",
      "specialty": "FAMILY PHYSICIAN-HOMEOPATH",
      "verified": false,
      "lat": null,
      "lng": null
    },
    {
      "id": 230,
      "name": "DR. ASFAQUE AHMED SIDDIQUE",
      "qualification": "M.D (HOMOEO),",
      "phone": "9825346631",
      "hospital": "AMLA",
      "address": "AMLA, IDGAH SHOP NO 4, IDGAH ROAD, LIMBAYAT, SURAT,, Gujarat, India",
      "specialty": "FAMILY PHYSICIAN-HOMEOPATH",
      "verified": false,
      "lat": null,
      "lng": null
    },
    {
      "id": 231,
      "name": "DR. ASIF PATHAN",
      "qualification": "D.H.M.S,",
      "phone": "9825357658",
      "hospital": "BADEKHA CHAKLA,",
      "address": "BADEKHA CHAKLA,, SURAT, Gujarat, India",
      "specialty": "FAMILY PHYSICIAN-HOMEOPATH",
      "verified": false,
      "lat": null,
      "lng": null
    },
    {
      "id": 232,
      "name": "DR. ASIF SAMOL",
      "qualification": "D.H.M.S,",
      "phone": "9998322044",
      "hospital": "SAMOL HOSPITAL",
      "address": "SAMOL HOSPITAL, MOTILAL VADI, NEAR CENTER POINT, SAGRAMPURA, SURAT, Gujarat, India",
      "specialty": "FAMILY PHYSICIAN-HOMEOPATH",
      "verified": false,
      "lat": null,
      "lng": null
    },
    {
      "id": 233,
      "name": "DR. ASIFKHAN IKBALKHAN",
      "qualification": "B.H.M.S,",
      "phone": "9228306420",
      "hospital": "PATHAN",
      "address": "PATHAN, GALI NO 3, TAIYBA MASJID, SHAH PURA, NEAR MADINA MASJID, LIMBAYAT, UDHNA YARD, UDHNA, SURAT 394210,, Gujarat, India",
      "specialty": "FAMILY PHYSICIAN-HOMEOPATH",
      "verified": false,
      "lat": null,
      "lng": null
    },
    {
      "id": 234,
      "name": "DR. ATEKA ZAID KHAN",
      "qualification": "B.H.M.S,",
      "phone": "8866646202",
      "hospital": "G-6, NAVCHETN COMPLEX,",
      "address": "G-6, NAVCHETN COMPLEX,, BEHIND MANOHAR COMPLEX, SAIYEDPURA PUMPING STATION, SURAT, GUJARAT,, Gujarat, India",
      "specialty": "FAMILY PHYSICIAN-HOMEOPATH",
      "verified": false,
      "lat": null,
      "lng": null
    },
    {
      "id": 235,
      "name": "DR. AYAZ DAWOOD BHAI",
      "qualification": "M.D (HOMOEOPATHY),",
      "phone": "9016537835",
      "hospital": "GHOGHARI",
      "address": "GHOGHARI, KD CURE CLINIC 6, ZUBER CHAMBERS, OPP TADWALI MASJID, SALABATPURA, SURAT, Gujarat, India",
      "specialty": "FAMILY PHYSICIAN-HOMEOPATH",
      "verified": false,
      "lat": null,
      "lng": null
    },
    {
      "id": 236,
      "name": "DR. DILSAD NORAT",
      "qualification": "M.D HOMOEOPATH,",
      "phone": "8401404018",
      "hospital": "H-7, RK CASTA, BEHIND SUPER",
      "address": "H-7, RK CASTA, BEHIND SUPER, MARKET, BHARUCH,, Surat, Gujarat, India",
      "specialty": "FAMILY PHYSICIAN-HOMEOPATH",
      "verified": false,
      "lat": null,
      "lng": null
    },
    {
      "id": 237,
      "name": "DR. FAIYAZ A. H. KAZI",
      "qualification": "D.H.M.S,",
      "phone": "8866404802",
      "hospital": "BAZAAR STREET, OPP BAZAR",
      "address": "BAZAAR STREET, OPP BAZAR, WALI MASJID, AT PO TADKESHWAR, TA-MANDVI, DIST SURAT., Gujarat, India",
      "specialty": "FAMILY PHYSICIAN-HOMEOPATH",
      "verified": false,
      "lat": null,
      "lng": null
    },
    {
      "id": 238,
      "name": "DR. FAIZAN KAZI",
      "qualification": "B.H.M.S,",
      "phone": "8109217419",
      "hospital": "",
      "address": "",
      "specialty": "FAMILY PHYSICIAN-HOMEOPATH",
      "verified": false,
      "lat": null,
      "lng": null
    },
    {
      "id": 239,
      "name": "DR. FARHEEN IBRAHIM BELIM",
      "qualification": "B.H.M.S,",
      "phone": "9601750505",
      "hospital": "",
      "address": "",
      "specialty": "FAMILY PHYSICIAN-HOMEOPATH",
      "verified": false,
      "lat": null,
      "lng": null
    },
    {
      "id": 240,
      "name": "DR TANJEEL MAKARANI",
      "qualification": "BHMS",
      "phone": "9427777986",
      "hospital": "RAHAT CLINIC, SAMDI CIRCLE.",
      "address": "RAHAT CLINIC, SAMDI CIRCLE., DEVGADH BARIA., Surat, Gujarat, India",
      "specialty": "FAMILY PHYSICIAN-HOMEOPATH",
      "verified": false,
      "lat": null,
      "lng": null
    },
    {
      "id": 241,
      "name": "DR. FATEMA PATEL",
      "qualification": "B.H.M.S,",
      "phone": "9624800787",
      "hospital": "5 ROYAL PALM , INDARPURA,",
      "address": "5 ROYAL PALM , INDARPURA,, KHATRIWAD, SURAT,, Gujarat, India",
      "specialty": "FAMILY PHYSICIAN-HOMEOPATH",
      "verified": false,
      "lat": null,
      "lng": null
    },
    {
      "id": 242,
      "name": "DR. FATEMA BIBI IBRAHIM",
      "qualification": "B.H.M.S,",
      "phone": "9879665791",
      "hospital": "JADVAT",
      "address": "JADVAT, AT POST :TADKESHWAR OPP POLICE STATION DIST-SURAT, Gujarat, India",
      "specialty": "FAMILY PHYSICIAN-HOMEOPATH",
      "verified": false,
      "lat": null,
      "lng": null
    },
    {
      "id": 243,
      "name": "DR. HALIMA MEMON",
      "qualification": "B.H.M.S,",
      "phone": "9537959192",
      "hospital": "",
      "address": "",
      "specialty": "FAMILY PHYSICIAN-HOMEOPATH",
      "verified": false,
      "lat": null,
      "lng": null
    },
    {
      "id": 244,
      "name": "DR. HALIMA TELI",
      "qualification": "B.H.M.S,",
      "phone": "9033297523",
      "hospital": "",
      "address": "",
      "specialty": "FAMILY PHYSICIAN-HOMEOPATH",
      "verified": false,
      "lat": null,
      "lng": null
    },
    {
      "id": 245,
      "name": "DR. IMRAN QURESHI",
      "qualification": "B.H.M.S,",
      "phone": "9898614008",
      "hospital": "FAIZ CLINIC, OPPOSITE PATNI",
      "address": "FAIZ CLINIC, OPPOSITE PATNI, HALL, SHAHPOR, SURAT 395003,, Gujarat, India",
      "specialty": "FAMILY PHYSICIAN-HOMEOPATH",
      "verified": false,
      "lat": null,
      "lng": null
    },
    {
      "id": 246,
      "name": "DR. SOHEL MAFAT",
      "qualification": "BHMS,",
      "phone": "9429135720",
      "hospital": "SHIFA CLINIC, ROYAL GARDEN",
      "address": "SHIFA CLINIC, ROYAL GARDEN, COMPLEX, OPP MSV SCHOOL, VESMA CROSS ROAD, VESMA, TA. JALALPORE, DIST. NAVSARI, Surat, Gujarat, India",
      "specialty": "FAMILY PHYSICIAN-HOMEOPATH",
      "verified": false,
      "lat": null,
      "lng": null
    },
    {
      "id": 247,
      "name": "DR. IQBAL SAMOL",
      "qualification": "D.H.M.S",
      "phone": "9824365786",
      "hospital": "GARDEE CHARITABLE",
      "address": "GARDEE CHARITABLE, HOSPITAL-DABHEL, Surat, Gujarat, India",
      "specialty": "FAMILY PHYSICIAN-HOMEOPATH",
      "verified": false,
      "lat": null,
      "lng": null
    },
    {
      "id": 248,
      "name": "DR. IRSHAD WANI",
      "qualification": "B.H.M.S,",
      "phone": "9898658770",
      "hospital": "AHWA DANG,",
      "address": "AHWA DANG,, Surat, Gujarat, India",
      "specialty": "FAMILY PHYSICIAN-HOMEOPATH",
      "verified": false,
      "lat": null,
      "lng": null
    },
    {
      "id": 249,
      "name": "DR. ISMAIL SHAIKH",
      "qualification": "D.H.M.S,",
      "phone": "9898181812",
      "hospital": "GR FLOOR, NOOR MAHEL APT,",
      "address": "GR FLOOR, NOOR MAHEL APT,, GOLKIWAD, SAGARAMPURA, SURAT,, Gujarat, India",
      "specialty": "FAMILY PHYSICIAN-HOMEOPATH",
      "verified": false,
      "lat": null,
      "lng": null
    },
    {
      "id": 250,
      "name": "DR. JAVED HUSENBHAI",
      "qualification": "D.H.M.S, CCH, CGO,",
      "phone": "9998408963",
      "hospital": "SHERASIA",
      "address": "SHERASIA, QAUSHIN CLINIC SHOP NO-8, ZAINAB PALACE, OPP RUBI COMPLEX, VARIYAVI BAZAAR, SURAT,, Gujarat, India",
      "specialty": "FAMILY PHYSICIAN-HOMEOPATH",
      "verified": false,
      "lat": null,
      "lng": null
    },
    {
      "id": 251,
      "name": "DR. JAVID G KANUGA",
      "qualification": "D.H.M.S,",
      "phone": "9979378674",
      "hospital": "UPPER -3 SAGAR COMPLEX",
      "address": "UPPER -3 SAGAR COMPLEX, HODI BUNGLOW,SYEDPURA TUKI SURAT-395003,, Gujarat, India",
      "specialty": "FAMILY PHYSICIAN-HOMEOPATH",
      "verified": false,
      "lat": null,
      "lng": null
    },
    {
      "id": 252,
      "name": "DR. KASIM HAJARI",
      "qualification": "B.H.M.S,",
      "phone": "9665365053",
      "hospital": "MASJID LINE VISARWADI",
      "address": "MASJID LINE VISARWADI, TALUKA- NAVAPUR DISTRICT- NANDURBAR, MAHARASHTRA,, Surat, Gujarat, India",
      "specialty": "FAMILY PHYSICIAN-HOMEOPATH",
      "verified": false,
      "lat": null,
      "lng": null
    },
    {
      "id": 253,
      "name": "DR. KHADIJAH ISMAIL",
      "qualification": "B.H.M.S,",
      "phone": "8460830129",
      "hospital": "DUMASIA",
      "address": "DUMASIA, SAIYEDPURA, PARSI SHERI, SURAT 395003,, Gujarat, India",
      "specialty": "FAMILY PHYSICIAN-HOMEOPATH",
      "verified": false,
      "lat": null,
      "lng": null
    },
    {
      "id": 254,
      "name": "DR. KUDSIYA JAVED SHERASIA",
      "qualification": "D.H.M.S CCH CGO,",
      "phone": "9879022543",
      "hospital": "RIVER VIEW SOCIETY",
      "address": "RIVER VIEW SOCIETY, BHARIMATA ROAD FULWADI SURAT,, Gujarat, India",
      "specialty": "FAMILY PHYSICIAN-HOMEOPATH",
      "verified": false,
      "lat": null,
      "lng": null
    },
    {
      "id": 255,
      "name": "DR. MACCIYA MOTALIYA",
      "qualification": "B.H.M.S,",
      "phone": "9979460103",
      "hospital": "HASNAIN CLINIC",
      "address": "HASNAIN CLINIC, SHOP NO 2, PLOT NO 30, AKBARI MANUAL, MERULAXMI SOC, NEW GORAT, RANDER ROAD,,SURAT ,, Gujarat, India",
      "specialty": "FAMILY PHYSICIAN-HOMEOPATH",
      "verified": false,
      "lat": null,
      "lng": null
    },
    {
      "id": 256,
      "name": "DR. MAHAMADSOYEB SHAIKH",
      "qualification": "B.H.M.S,",
      "phone": "9725145870",
      "hospital": "FAIZ CLINIC , STAR AVANUE,",
      "address": "FAIZ CLINIC , STAR AVANUE,, AMBOLI ROAD, ANKLESHWAR- 393001,, Surat, Gujarat, India",
      "specialty": "FAMILY PHYSICIAN-HOMEOPATH",
      "verified": false,
      "lat": null,
      "lng": null
    },
    {
      "id": 257,
      "name": "DR. MAHEBUB SHAIKH",
      "qualification": "D.H.M.S,",
      "phone": "9825920304",
      "hospital": "MISSION HOSPITAL, KIMAVATI",
      "address": "MISSION HOSPITAL, KIMAVATI, COMPLEX, KIM(E), TA OLPAD DIST SURAT,, Gujarat, India",
      "specialty": "FAMILY PHYSICIAN-HOMEOPATH",
      "verified": false,
      "lat": null,
      "lng": null
    },
    {
      "id": 258,
      "name": "DR. MAHJABEEN M SHAIKH",
      "qualification": "D.H.M.S,",
      "phone": "9825920985",
      "hospital": "MISSION HOSPITAL, KIMAVATI",
      "address": "MISSION HOSPITAL, KIMAVATI, COMPLEX, KIM(E )TA:OLPAD, DIST:SURAT,, Gujarat, India",
      "specialty": "FAMILY PHYSICIAN-HOMEOPATH",
      "verified": false,
      "lat": null,
      "lng": null
    },
    {
      "id": 259,
      "name": "DR. MAHMAD SOYAB YUSUF",
      "qualification": "B.H.M.S,",
      "phone": "9725553996",
      "hospital": "AMLIWALA",
      "address": "AMLIWALA, SHIFA CLINIC, SHAN PLAZA, MOSALI CHOWKDI, TA MANGROL, DIS- SURAT, Gujarat, India",
      "specialty": "FAMILY PHYSICIAN-HOMEOPATH",
      "verified": false,
      "lat": null,
      "lng": null
    },
    {
      "id": 260,
      "name": "DR. MALAM SHEHZAD",
      "qualification": "D.H.M.S,",
      "phone": "9998625830",
      "hospital": "MAZHER",
      "address": "MAZHER, SAIF CILINIC , PLOT NO  958, NR WADIWALABABA  DARGAH , BHATHENA 1 RING ROAD, SURAT,, Gujarat, India",
      "specialty": "FAMILY PHYSICIAN-HOMEOPATH",
      "verified": false,
      "lat": null,
      "lng": null
    },
    {
      "id": 261,
      "name": "DR. MASARRAT KHAN",
      "qualification": "B.H.M.S,",
      "phone": "7405128506",
      "hospital": "SS AGRAWAL HOMEOPATHIC",
      "address": "SS AGRAWAL HOMEOPATHIC, MEDICAL COLLEGE,, Surat, Gujarat, India",
      "specialty": "FAMILY PHYSICIAN-HOMEOPATH",
      "verified": false,
      "lat": null,
      "lng": null
    },
    {
      "id": 262,
      "name": "DR. MAZHAR GHARI",
      "qualification": "B.H.M.S,",
      "phone": "8511387601",
      "hospital": "C-107 EVA EMBRO KOSAD",
      "address": "C-107 EVA EMBRO KOSAD, ANJANI ROAD SURAT,, Gujarat, India",
      "specialty": "FAMILY PHYSICIAN-HOMEOPATH",
      "verified": false,
      "lat": null,
      "lng": null
    },
    {
      "id": 263,
      "name": "DR. M B KHAN",
      "qualification": "D.H.M.S,",
      "phone": "9998620240",
      "hospital": "PARVEEN CLINIC, ELAF APPT",
      "address": "PARVEEN CLINIC, ELAF APPT, BADE KHAN CHAKLA, PAKHALIWAD., Surat, Gujarat, India",
      "specialty": "FAMILY PHYSICIAN-HOMEOPATH",
      "verified": false,
      "lat": null,
      "lng": null
    },
    {
      "id": 264,
      "name": "DR. MEHFUZA MATADAR",
      "qualification": "B.H.M.S (CGO),",
      "phone": "9714235364",
      "hospital": "SUNRISE CLINIC, SHOP NO3,",
      "address": "SUNRISE CLINIC, SHOP NO3,, NEAR BHANKI STADIUM, RANDER, SURAT,, Gujarat, India",
      "specialty": "FAMILY PHYSICIAN-HOMEOPATH",
      "verified": false,
      "lat": null,
      "lng": null
    },
    {
      "id": 265,
      "name": "DR. MEHZABIN SHAHNAVAZ",
      "qualification": "D.H.M.S,",
      "phone": "9825934257",
      "hospital": "KANUGA",
      "address": "KANUGA, SHOP NO 6, BADI JUMMA MASJID, NR JANTA BAKERY, RANDER, SURAT., Gujarat, India",
      "specialty": "FAMILY PHYSICIAN-HOMEOPATH",
      "verified": false,
      "lat": null,
      "lng": null
    },
    {
      "id": 266,
      "name": "DR. MINHAJ DAUD MITHA",
      "qualification": "M.D HOMOEOPATH",
      "phone": "7359217036",
      "hospital": "AL-SHIFA HOMOEOPATHIC",
      "address": "AL-SHIFA HOMOEOPATHIC, CLINIC. MUSKAN COMPLEX,OPP TEEN DARGAH, MADINA HOTEL, BHARUCH, Surat, Gujarat, India",
      "specialty": "FAMILY PHYSICIAN-HOMEOPATH",
      "verified": false,
      "lat": null,
      "lng": null
    },
    {
      "id": 267,
      "name": "DR. MO ABDULLAH GARANA",
      "qualification": "B.H.M.S,",
      "phone": "8460588667",
      "hospital": "LKL CLINIC",
      "address": "LKL CLINIC, RATANJI NAGAR NEAR AMENA MASJID, LIMBAYAT, SURAT,, Gujarat, India",
      "specialty": "FAMILY PHYSICIAN-HOMEOPATH",
      "verified": false,
      "lat": null,
      "lng": null
    },
    {
      "id": 268,
      "name": "DR. MOHAMED IMTIYAZ G",
      "qualification": "D.H.M.S,",
      "phone": "9825090213",
      "hospital": "KANUNGA",
      "address": "KANUNGA, 4 SHISHA PALACE, NEAR JILANI APPARTMENT, NEW GORAT ROAD, ADAJAN PATIA SURAT,, Gujarat, India",
      "specialty": "FAMILY PHYSICIAN-HOMEOPATH",
      "verified": false,
      "lat": null,
      "lng": null
    },
    {
      "id": 269,
      "name": "DR. MOHAMMAD AARIF Y",
      "qualification": "B.H.M.S,",
      "phone": "8401714002",
      "hospital": "GHERI",
      "address": "GHERI, ZAMZAM SHOPING CENTRE KIM CHAR RASTA PALOD TA MANGROL DI SURAT, Gujarat, India",
      "specialty": "FAMILY PHYSICIAN-HOMEOPATH",
      "verified": false,
      "lat": null,
      "lng": null
    },
    {
      "id": 270,
      "name": "DR. MOHAMMADSOYEB",
      "qualification": "D.H.M.S,",
      "phone": "9904028351",
      "hospital": "SHAIKH",
      "address": "SHAIKH, AMAN CLINIC,NEAR MAHAVIR COMPLEX, KIM CHAR RASTA , PALOD ,TA MANGROL, SURAT,, Gujarat, India",
      "specialty": "FAMILY PHYSICIAN-HOMEOPATH",
      "verified": false,
      "lat": null,
      "lng": null
    },
    {
      "id": 271,
      "name": "DR. MOHAMMED SAEED B",
      "qualification": "B.H.M.S, MBA IN HOSPITAL AND",
      "phone": "9377777937",
      "hospital": "SAIYED",
      "address": "SAIYED, HEALTHCARE ADMINISTRATION, 1/1725, HABIBSHAH STREET, NANPURA, SURAT,, Gujarat, India",
      "specialty": "FAMILY PHYSICIAN-HOMEOPATH",
      "verified": false,
      "lat": null,
      "lng": null
    },
    {
      "id": 272,
      "name": "DR. MOHAMMED JAVED",
      "qualification": "B.H.M.S,",
      "phone": "9601006080",
      "hospital": "ABDUL RAZZAK MEMON",
      "address": "ABDUL RAZZAK MEMON, A SHIFA CLINIC AND CHILD HEALTH CARE , OPP PARSI PATEL GIRL SCHOOL, RANITALAO, SURAT, Gujarat, India",
      "specialty": "FAMILY PHYSICIAN-HOMEOPATH",
      "verified": false,
      "lat": null,
      "lng": null
    },
    {
      "id": 273,
      "name": "DR. MOHSIN MEMON",
      "qualification": "B.H.M.S,",
      "phone": "8200183498",
      "hospital": "8-9, GROUND FLOOR,",
      "address": "8-9, GROUND FLOOR,, ATLANTIC MALL, MAROLI CHAR RSTA, NAVSARI,, Surat, Gujarat, India",
      "specialty": "FAMILY PHYSICIAN-HOMEOPATH",
      "verified": false,
      "lat": null,
      "lng": null
    },
    {
      "id": 274,
      "name": "DR. MOHSIN SHAIKH",
      "qualification": "B.H.M.S,",
      "phone": "9998599759",
      "hospital": "18, SARA PARK SOC, OPP",
      "address": "18, SARA PARK SOC, OPP, GULSHAN PARK, BHARI MATA ROAD, VARIYAVI BAZAR, SURAT 395003,, Gujarat, India",
      "specialty": "FAMILY PHYSICIAN-HOMEOPATH",
      "verified": false,
      "lat": null,
      "lng": null
    },
    {
      "id": 275,
      "name": "DR. MUNEER",
      "qualification": "D.H.M.S,",
      "phone": "9825455505",
      "hospital": "HAKEEMCHICHIWALA",
      "address": "HAKEEMCHICHIWALA, HAKEEM CLINIC, SILVER PALACE, HODI BUNGLOW, GOVT SCHOOL GALI RAMPURA -SURAT,, Gujarat, India",
      "specialty": "FAMILY PHYSICIAN-HOMEOPATH",
      "verified": false,
      "lat": null,
      "lng": null
    },
    {
      "id": 276,
      "name": "DR. MUNIRA MUNSHI",
      "qualification": "B.H.M.S,",
      "phone": "7984904916",
      "hospital": "TAWAKKAL CLINIC AND",
      "address": "TAWAKKAL CLINIC AND, HOMEOCARE, OPP MAI SCHOOL CAMPUS, BESIDE SALEH MOHAMMAD MASJID,, Surat, Gujarat, India",
      "specialty": "FAMILY PHYSICIAN-HOMEOPATH",
      "verified": false,
      "lat": null,
      "lng": null
    },
    {
      "id": 277,
      "name": "DR. NAJIBKHAN Y PATHAN",
      "qualification": "B.H.M.S,",
      "phone": "9825810275",
      "hospital": "7/1507, FARHEEN CLINIC,",
      "address": "7/1507, FARHEEN CLINIC,, VARIYAVI BAZAR MAIN ROAD, NEAR HODI BUNGLOW SURAT, DIRECTORY 2022-23 FOR SOUTH GUJARAT ASSOCIATION OF MUSLIM DOCTORS, Gujarat, India",
      "specialty": "FAMILY PHYSICIAN-HOMEOPATH",
      "verified": false,
      "lat": null,
      "lng": null
    },
    {
      "id": 278,
      "name": "DR. NAUSHIN CHASMAWALA",
      "qualification": "B.H.M.S,",
      "phone": "9825371933",
      "hospital": "SHOP NO 3, HALIMA PALACE,",
      "address": "SHOP NO 3, HALIMA PALACE,, OPP JILANI COMPLEX, ADAJAN PATIA,, Surat, Gujarat, India",
      "specialty": "FAMILY PHYSICIAN-HOMEOPATH",
      "verified": false,
      "lat": null,
      "lng": null
    },
    {
      "id": 279,
      "name": "DR. NAYYAR ALI",
      "qualification": "B.H.M.S,",
      "phone": "9689794959",
      "hospital": "WORKING AT AAMENA",
      "address": "WORKING AT AAMENA, SARVAJANIK HOSPITAL,, Surat, Gujarat, India",
      "specialty": "FAMILY PHYSICIAN-HOMEOPATH",
      "verified": false,
      "lat": null,
      "lng": null
    },
    {
      "id": 280,
      "name": "DR. NAZIBA M.SHAIKH",
      "qualification": "B.H.M.S,",
      "phone": "9023484241",
      "hospital": "SHIFA HOSPITAL,",
      "address": "SHIFA HOSPITAL,, TADKESHWAR, MANDVI,, Surat, Gujarat, India",
      "specialty": "FAMILY PHYSICIAN-HOMEOPATH",
      "verified": false,
      "lat": null,
      "lng": null
    },
    {
      "id": 281,
      "name": "DR. NAZMIN BILAL MALEK",
      "qualification": "B.H.M.S AND CGO,",
      "phone": "7574055521",
      "hospital": "NAZ CLINIC",
      "address": "NAZ CLINIC, KHARIWAD NANI DAMAN 396210,, Surat, Gujarat, India",
      "specialty": "FAMILY PHYSICIAN-HOMEOPATH",
      "verified": false,
      "lat": null,
      "lng": null
    },
    {
      "id": 282,
      "name": "DR. NAZMIN MALEK",
      "qualification": "B.H.M.S,",
      "phone": "9054017767",
      "hospital": "SEHAT CLINIC,",
      "address": "SEHAT CLINIC,, MOSALI,, Surat, Gujarat, India",
      "specialty": "FAMILY PHYSICIAN-HOMEOPATH",
      "verified": false,
      "lat": null,
      "lng": null
    },
    {
      "id": 283,
      "name": "DR. NAZNIN MADRASI",
      "qualification": "B.H.M.S,",
      "phone": "9924417286",
      "hospital": "AMIN APARTMENT,",
      "address": "AMIN APARTMENT,, RUDRAPURA, MACHCHIWAD, SURAT., Gujarat, India",
      "specialty": "FAMILY PHYSICIAN-HOMEOPATH",
      "verified": false,
      "lat": null,
      "lng": null
    },
    {
      "id": 284,
      "name": "DR. NUZHAT TAPALI",
      "qualification": "B.H.M.S,",
      "phone": "9726116507",
      "hospital": "TAPALI S HOMOEOPATHY",
      "address": "TAPALI S HOMOEOPATHY, BESIDE DAKSINI STREET ; NEAR POLICE GATE NAVSARI BAJAR SURAT,, Gujarat, India",
      "specialty": "FAMILY PHYSICIAN-HOMEOPATH",
      "verified": false,
      "lat": null,
      "lng": null
    },
    {
      "id": 285,
      "name": "Dr. MOHAMMAD SHOEB",
      "qualification": "D.H.M.S",
      "phone": "9904028351",
      "hospital": "SHAIKH",
      "address": "SHAIKH, AMAN CLINIC NEAR MAHAVIR COMPLEX KIM CHAR RASTA, PALOD, TA: MANGROL, DIST: SURAT., Gujarat, India",
      "specialty": "FAMILY PHYSICIAN-HOMEOPATH",
      "verified": false,
      "lat": null,
      "lng": null
    },
    {
      "id": 286,
      "name": "DR. PARVEZ JAMEEL HAKEEM",
      "qualification": "B.H.M.S,",
      "phone": "9825190100",
      "hospital": "1) HAKEEM.S CLINIC, RANITALAV,",
      "address": "1) HAKEEM.S CLINIC, RANITALAV,, DUNGER KUVA STREET, SURAT 2) HAKEEM.S CLINIC, HAJOORI CHAMBERS, BEGUMPURA, ZAPMA BAZAR, SURAT 395003, Gujarat, India",
      "specialty": "FAMILY PHYSICIAN-HOMEOPATH",
      "verified": false,
      "lat": null,
      "lng": null
    },
    {
      "id": 287,
      "name": "DR. PATHAN MEZABIN",
      "qualification": "B.H.M.S,",
      "phone": "7383991668",
      "hospital": "RAHAT CLINIC,",
      "address": "RAHAT CLINIC,, Surat, Gujarat, India",
      "specialty": "FAMILY PHYSICIAN-HOMEOPATH",
      "verified": false,
      "lat": null,
      "lng": null
    },
    {
      "id": 288,
      "name": "DR. REHAN N SHAIKH",
      "qualification": "B.H.M.S,",
      "phone": "9427160860",
      "hospital": "D-2-1, YASHFIN CLINIC,NEAR",
      "address": "D-2-1, YASHFIN CLINIC,NEAR, ZEBA MEDICAL STORE, UMARWADA TENAMENT D-2, SURAT-395002,, Gujarat, India",
      "specialty": "FAMILY PHYSICIAN-HOMEOPATH",
      "verified": false,
      "lat": null,
      "lng": null
    },
    {
      "id": 289,
      "name": "DR. RUHINA Z GAGAN",
      "qualification": "B.H.M.S, CGO,",
      "phone": "9638479199",
      "hospital": "",
      "address": "",
      "specialty": "FAMILY PHYSICIAN-HOMEOPATH",
      "verified": false,
      "lat": null,
      "lng": null
    },
    {
      "id": 290,
      "name": "DR GAGAN",
      "qualification": "",
      "phone": "",
      "hospital": "OPP KS JOSHI SCHOOL, NEAR",
      "address": "OPP KS JOSHI SCHOOL, NEAR, SABRI MASJID, MUGLISARA, SURAT,, Gujarat, India",
      "specialty": "FAMILY PHYSICIAN-HOMEOPATH",
      "verified": false,
      "lat": null,
      "lng": null
    },
    {
      "id": 291,
      "name": "DR. RUHI RANDERWALA",
      "qualification": "B.H.M.S,",
      "phone": "9033138344",
      "hospital": "ZAINAB HOSPITAL, NEW",
      "address": "ZAINAB HOSPITAL, NEW, RANDER ROAD, SURAT,, Gujarat, India",
      "specialty": "FAMILY PHYSICIAN-HOMEOPATH",
      "verified": false,
      "lat": null,
      "lng": null
    },
    {
      "id": 292,
      "name": "DR. SADIK ISMAIL PATEL",
      "qualification": "M.D HOMOEOPATHY,",
      "phone": "9920892905",
      "hospital": "CURRENTLY ATTACHED WITH",
      "address": "CURRENTLY ATTACHED WITH, APEX MULTI-SPECIALITY AND TRAUMA CENTRE, PANCH BATTI, BHARUCH,, Surat, Gujarat, India",
      "specialty": "FAMILY PHYSICIAN-HOMEOPATH",
      "verified": false,
      "lat": null,
      "lng": null
    },
    {
      "id": 293,
      "name": "DR. SAFVANA BANU MANSURI",
      "qualification": "B.H.M.S,",
      "phone": "7285050889",
      "hospital": "7/820, NOORI MOHALLA,",
      "address": "7/820, NOORI MOHALLA,, ASHAKTA ASHRAM HOSPITAL ROAD, RAMPURA, SURAT - 395003,, Gujarat, India",
      "specialty": "FAMILY PHYSICIAN-HOMEOPATH",
      "verified": false,
      "lat": null,
      "lng": null
    },
    {
      "id": 294,
      "name": "DR. SAGUFTA JAVED SAIYAD",
      "qualification": "B.H.M.S,",
      "phone": "9879045392",
      "hospital": "SHOP NO 22, GULSHAN PARK,",
      "address": "SHOP NO 22, GULSHAN PARK,, NEAR PALIYA GROUND, VARIYAVI BAZAR, SURAT,, Gujarat, India",
      "specialty": "FAMILY PHYSICIAN-HOMEOPATH",
      "verified": false,
      "lat": null,
      "lng": null
    },
    {
      "id": 295,
      "name": "DR SHAIKH FAZAL MAHMOOD",
      "qualification": "DHMS",
      "phone": "8141777788",
      "hospital": "TAYYAB",
      "address": "TAYYAB, A-226, BETHI COLONY, MITHI KHADI, LIMBAYAT, SURAT, Gujarat, India",
      "specialty": "FAMILY PHYSICIAN-HOMEOPATH",
      "verified": false,
      "lat": null,
      "lng": null
    },
    {
      "id": 296,
      "name": "DR. SAMEER BOMBAYWALA",
      "qualification": "B.H.M.S,",
      "phone": "9033671776",
      "hospital": "SHIFA CLINIC SHOP NO 2",
      "address": "SHIFA CLINIC SHOP NO 2, BELOW MUSLIM SINDHI JAMAT HALL SAGRAMPURA SURAT,, Gujarat, India",
      "specialty": "FAMILY PHYSICIAN-HOMEOPATH",
      "verified": false,
      "lat": null,
      "lng": null
    },
    {
      "id": 297,
      "name": "DR. SAMIHA AYAZ GHOGHARI",
      "qualification": "B.H.M.S, PERSUING M.D",
      "phone": "7575084787",
      "hospital": "HOMEOPATHY",
      "address": "HOMEOPATHY, K.D CURE CLINIC, TADWADI MASJID, BEGUMPURA, SURAT, Gujarat, India",
      "specialty": "FAMILY PHYSICIAN-HOMEOPATH",
      "verified": false,
      "lat": null,
      "lng": null
    },
    {
      "id": 298,
      "name": "DR. SHAHNAVAZ KANUGA",
      "qualification": "D.H.M.S,",
      "phone": "9879520091",
      "hospital": "SHOP NO 6, BADI JUMMA",
      "address": "SHOP NO 6, BADI JUMMA, MASJID, NR JANTA BAKERY, RANDER, SURAT,, Gujarat, India",
      "specialty": "FAMILY PHYSICIAN-HOMEOPATH",
      "verified": false,
      "lat": null,
      "lng": null
    },
    {
      "id": 299,
      "name": "DR. SHAHRUKH MANSURI",
      "qualification": "B.H.M.S,",
      "phone": "9624440097",
      "hospital": "PIRKATHI ROAD, BHARUCH,",
      "address": "PIRKATHI ROAD, BHARUCH,, Surat, Gujarat, India",
      "specialty": "FAMILY PHYSICIAN-HOMEOPATH",
      "verified": false,
      "lat": null,
      "lng": null
    },
    {
      "id": 300,
      "name": "DR. SHAIKH HUZEFABANU M",
      "qualification": "B.H.M.S,",
      "phone": "7990887100",
      "hospital": "SALIM",
      "address": "SALIM, RAHAT HEALTH CENTRE SHOP NO 7, SURYA COMPLEX, OPP KALYAN CHAMBERS, BILIMORA,, Surat, Gujarat, India",
      "specialty": "FAMILY PHYSICIAN-HOMEOPATH",
      "verified": false,
      "lat": null,
      "lng": null
    },
    {
      "id": 301,
      "name": "DR. SHAIKH SUFIYAN",
      "qualification": "B.H.M.S,",
      "phone": "9925824249",
      "hospital": "TRIPLE CROWN COMPLEX,",
      "address": "TRIPLE CROWN COMPLEX,, AMBAWADI, KALIPOOL, SALABATPURA, SURAT 395002,, Gujarat, India",
      "specialty": "FAMILY PHYSICIAN-HOMEOPATH",
      "verified": false,
      "lat": null,
      "lng": null
    },
    {
      "id": 302,
      "name": "DR. TABASSUM",
      "qualification": "B.H.M.S,",
      "phone": "7567486323",
      "hospital": "WORKING  AT LCDC.  AS A",
      "address": "WORKING  AT LCDC.  AS A, MEDICAL OFFICER, Surat, Gujarat, India",
      "specialty": "FAMILY PHYSICIAN-HOMEOPATH",
      "verified": false,
      "lat": null,
      "lng": null
    },
    {
      "id": 303,
      "name": "DR. SHARIQUE SHAIKH",
      "qualification": "B.H.M.S,",
      "phone": "9039764620",
      "hospital": "AZAD CHOWK, MITHI KHADI",
      "address": "AZAD CHOWK, MITHI KHADI, LIMBAYAT, SURAT, Gujarat, India",
      "specialty": "FAMILY PHYSICIAN-HOMEOPATH",
      "verified": false,
      "lat": null,
      "lng": null
    },
    {
      "id": 304,
      "name": "DR. SUHAIMA SALEHBHAI",
      "qualification": "B.H.M.S,",
      "phone": "7623945197",
      "hospital": "",
      "address": "",
      "specialty": "FAMILY PHYSICIAN-HOMEOPATH",
      "verified": false,
      "lat": null,
      "lng": null
    },
    {
      "id": 305,
      "name": "DR. SWALIHA MIRZA",
      "qualification": "B.H.M.S,",
      "phone": "8460907088",
      "hospital": "SHIFA CLINIC",
      "address": "SHIFA CLINIC, NEXT TO PATEL LAUNDRY, PAKIZA SOCIETY, RANDER, SURAT, Gujarat, India",
      "specialty": "FAMILY PHYSICIAN-HOMEOPATH",
      "verified": false,
      "lat": null,
      "lng": null
    },
    {
      "id": 306,
      "name": "DR. TOSIF PATEL",
      "qualification": "B.H.M.S,",
      "phone": "8200889701",
      "hospital": "PATEL CLINIC",
      "address": "PATEL CLINIC, GALI NO-3, MADINA MASJID, SHAHTRI CHOWK, LIMBAYAT, SURAT,, Gujarat, India",
      "specialty": "FAMILY PHYSICIAN-HOMEOPATH",
      "verified": false,
      "lat": null,
      "lng": null
    },
    {
      "id": 307,
      "name": "DR. TAHER CHALLAWALA",
      "qualification": "B.H.M.S, M.D (AM),",
      "phone": "9825944672",
      "hospital": "HATEMI CLINIC,",
      "address": "HATEMI CLINIC,, SHOP NO 2, BU APARTMENT, AMBAWADI KALIPUL, RUSTAMPURA, NR URDU SCHOOL, SURAT, Gujarat, India",
      "specialty": "FAMILY PHYSICIAN-HOMEOPATH",
      "verified": false,
      "lat": null,
      "lng": null
    },
    {
      "id": 308,
      "name": "DR. TAIYABA SHOKATALI",
      "qualification": "B.H.M.S,",
      "phone": "8732914213",
      "hospital": "SAIYED",
      "address": "SAIYED, BARODA HEART HOSPITAL, BHARUCH,, Surat, Gujarat, India",
      "specialty": "FAMILY PHYSICIAN-HOMEOPATH",
      "verified": false,
      "lat": null,
      "lng": null
    },
    {
      "id": 309,
      "name": "DR. UZMA A TIMOL",
      "qualification": "B.H.M.S,",
      "phone": "8793003610",
      "hospital": "RAHAT CLINIC",
      "address": "RAHAT CLINIC, TORNAL PLOT, NEAR PERDESI CYCLE, NAVAPUR, DIST NANDURBAR 425418,, Surat, Gujarat, India",
      "specialty": "FAMILY PHYSICIAN-HOMEOPATH",
      "verified": false,
      "lat": null,
      "lng": null
    },
    {
      "id": 310,
      "name": "DR. UMMEZEBA TAWAKKAL",
      "qualification": "B.H.M.S,",
      "phone": "7984706502",
      "hospital": "HUSAIN BUKHARI",
      "address": "HUSAIN BUKHARI, AMARDEEP HOSPITAL,, Surat, Gujarat, India",
      "specialty": "FAMILY PHYSICIAN-HOMEOPATH",
      "verified": false,
      "lat": null,
      "lng": null
    },
    {
      "id": 311,
      "name": "DR. USMANGANI JARIWALA",
      "qualification": "B.H.M.S,",
      "phone": "9825160079",
      "hospital": "SHOP NO 1, PEARL",
      "address": "SHOP NO 1, PEARL, RESIDENCY, INDERPURA, BADRI ROAD, SURAT, DIRECTORY 2022-23 FOR SOUTH GUJARAT ASSOCIATION OF MUSLIM DOCTORS, Gujarat, India",
      "specialty": "FAMILY PHYSICIAN-HOMEOPATH",
      "verified": false,
      "lat": null,
      "lng": null
    },
    {
      "id": 312,
      "name": "DR. YASINKHAN A. PATHAN",
      "qualification": "B.H.M.S,",
      "phone": "9879416126",
      "hospital": "GALAXY HEIGHTS, OPP MASJID",
      "address": "GALAXY HEIGHTS, OPP MASJID, E AL-AMIN, NEW RANDER ROAD, SURAT 395009,, Gujarat, India",
      "specialty": "FAMILY PHYSICIAN-HOMEOPATH",
      "verified": false,
      "lat": null,
      "lng": null
    },
    {
      "id": 313,
      "name": "DR. VASIM JUJARA",
      "qualification": "B.H.M.S,",
      "phone": "8000068506",
      "hospital": "SUKUN CLINIC",
      "address": "SUKUN CLINIC, SHOP NO – 1, HAJOORI CHAMBER, NEAR MASUM PIR DARGAH, ZAMPA BAZAR, SURAT,, Gujarat, India",
      "specialty": "FAMILY PHYSICIAN-HOMEOPATH",
      "verified": false,
      "lat": null,
      "lng": null
    },
    {
      "id": 314,
      "name": "DR. YAHYA MOHD SHOAIB",
      "qualification": "B.H.M.S,",
      "phone": "8866840860",
      "hospital": "BOMBAYWALA",
      "address": "BOMBAYWALA, SHALBY HOSPITALS, ADAJAN, SURAT, Gujarat, India",
      "specialty": "FAMILY PHYSICIAN-HOMEOPATH",
      "verified": false,
      "lat": null,
      "lng": null
    },
    {
      "id": 315,
      "name": "DR. ZAINEB ASIF KHAN",
      "qualification": "D.H.M.S,",
      "phone": "",
      "hospital": "PATHAN",
      "address": "PATHAN, 987965665, MARJAN SHAMI SHOPPING CENTER, VARIYAVI BAZAR, SURAT, Gujarat, India",
      "specialty": "FAMILY PHYSICIAN-HOMEOPATH",
      "verified": false,
      "lat": null,
      "lng": null
    },
    {
      "id": 316,
      "name": "DR. YUSUF A BADI",
      "qualification": "D.H.M.S,",
      "phone": "9898004900",
      "hospital": "42 , HAMID NAGAR, OPP",
      "address": "42 , HAMID NAGAR, OPP, VASILA PROVISION STORE, UNN, SURAT, Gujarat, India",
      "specialty": "FAMILY PHYSICIAN-HOMEOPATH",
      "verified": false,
      "lat": null,
      "lng": null
    },
    {
      "id": 317,
      "name": "DR. ZAHID BASIR KANUGA",
      "qualification": "D.H.M.S,",
      "phone": "9898288577",
      "hospital": "",
      "address": "",
      "specialty": "FAMILY PHYSICIAN-HOMEOPATH",
      "verified": false,
      "lat": null,
      "lng": null
    },
    {
      "id": 318,
      "name": "DR BASIR BHAI KANUGA",
      "qualification": "",
      "phone": "",
      "hospital": "NEAR RAILWAY STATION,",
      "address": "NEAR RAILWAY STATION,, AT POST : KIM,, Surat, Gujarat, India",
      "specialty": "FAMILY PHYSICIAN-HOMEOPATH",
      "verified": false,
      "lat": null,
      "lng": null
    },
    {
      "id": 319,
      "name": "DR. ZAKIR BHAI I DIVAN",
      "qualification": "D.H.M.S,",
      "phone": "9687950186",
      "hospital": "AT VALVADA MAIN ROAD,",
      "address": "AT VALVADA MAIN ROAD,, MAHUVA, DIST-SURAT 394248,, Gujarat, India",
      "specialty": "FAMILY PHYSICIAN-HOMEOPATH",
      "verified": false,
      "lat": null,
      "lng": null
    },
    {
      "id": 320,
      "name": "DR. ZAKARIYA MEMI",
      "qualification": "B.H.M.S,",
      "phone": "9824186642",
      "hospital": "MEMI CLINIC,",
      "address": "MEMI CLINIC,, WS7, VOMPLEX MAIN BAZAR, AT & PO VESMA, TA – JALALPUR, DIST-NAVSARI, Surat, Gujarat, India",
      "specialty": "FAMILY PHYSICIAN-HOMEOPATH",
      "verified": false,
      "lat": null,
      "lng": null
    },
    {
      "id": 321,
      "name": "DR. ZAKI AHMED N SAIYED",
      "qualification": "B.H.M.S,",
      "phone": "9898578601",
      "hospital": "NOOR CLINIC",
      "address": "NOOR CLINIC, KAVINA PALACE, OPP B P URBAN HEALTH CENTRE, WANKI BORDI, SAIYEDPURA, SURAT,, Gujarat, India",
      "specialty": "FAMILY PHYSICIAN-HOMEOPATH",
      "verified": false,
      "lat": null,
      "lng": null
    },
    {
      "id": 322,
      "name": "DR. ZAKIR HUSAIN ANVER",
      "qualification": "D.H.M.S,",
      "phone": "9904068211",
      "hospital": "KHAN",
      "address": "KHAN, SARVAJANIK HOSPITAL, TANKWADA, HANSOT 393030,, Surat, Gujarat, India",
      "specialty": "FAMILY PHYSICIAN-HOMEOPATH",
      "verified": false,
      "lat": null,
      "lng": null
    },
    {
      "id": 323,
      "name": "DR. ZAKIR HUSAIN BASIR AHMED",
      "qualification": "D.H.M.S,",
      "phone": "9898527442",
      "hospital": "KANUGA",
      "address": "KANUGA, FEMI GENERAL HOSPITAL, OPP RAILWAY STATION, KIM - EAST 394110, Surat, Gujarat, India",
      "specialty": "FAMILY PHYSICIAN-HOMEOPATH",
      "verified": false,
      "lat": null,
      "lng": null
    },
    {
      "id": 324,
      "name": "DR. ZAKIR MEMON",
      "qualification": "D.H.M.S,",
      "phone": "9898633127",
      "hospital": "BHATENA , UDHNA,",
      "address": "BHATENA , UDHNA,, DIRECTORY 2022-23 FOR SOUTH GUJARAT ASSOCIATION OF MUSLIM DOCTORS Compiled By Dr Shahnavaz Kanuga                          Version 2.0                                         updated on 26/06/24.   44, Surat, Gujarat, India",
      "specialty": "FAMILY PHYSICIAN-HOMEOPATH",
      "verified": false,
      "lat": null,
      "lng": null
    },
    {
      "id": 325,
      "name": "DR. ZUBAIR KAPADIA",
      "qualification": "B.H.M.S,",
      "phone": "9979420787",
      "hospital": "PARIEJ, TA DIST : BHARUCH,",
      "address": "PARIEJ, TA DIST : BHARUCH,, Surat, Gujarat, India",
      "specialty": "FAMILY PHYSICIAN-HOMEOPATH",
      "verified": false,
      "lat": null,
      "lng": null
    },
    {
      "id": 326,
      "name": "DR. ZEBA POTHIAWALA",
      "qualification": "B.H.M.S,",
      "phone": "9879779284",
      "hospital": "321/HIGH FIELD ASCOT ,",
      "address": "321/HIGH FIELD ASCOT ,, VESU, SURAT, Gujarat, India",
      "specialty": "FAMILY PHYSICIAN-HOMEOPATH",
      "verified": false,
      "lat": null,
      "lng": null
    },
    {
      "id": 327,
      "name": "DR. ZIAULLAH JARULLAH",
      "qualification": "B.H.M.S,",
      "phone": "9825337863",
      "hospital": "97/A, BETHI COLONY, NEAR",
      "address": "97/A, BETHI COLONY, NEAR, URDU SCHOOL, MITHIKHADI, LIMBAYAT, SURAT, Gujarat, India",
      "specialty": "FAMILY PHYSICIAN-HOMEOPATH",
      "verified": false,
      "lat": null,
      "lng": null
    },
    {
      "id": 328,
      "name": "DR. ZULEKHA BASHIR BHESANIA",
      "qualification": "B.H.M.S,",
      "phone": "9033796096",
      "hospital": "BASIL ONCO CARE",
      "address": "BASIL ONCO CARE, SUNRISE MULTISPECIALTY HOSPITAL, Surat, Gujarat, India",
      "specialty": "FAMILY PHYSICIAN-HOMEOPATH",
      "verified": false,
      "lat": null,
      "lng": null
    },
    {
      "id": 329,
      "name": "Dr. Sabir Vasim Zariwala",
      "qualification": "B.H.M.S,",
      "phone": "8347177862",
      "hospital": "12/1299, Ground Floor,",
      "address": "12/1299, Ground Floor,, Naznin Palace, Shahpore, Surat - 395003, Gujarat, India",
      "specialty": "FAMILY PHYSICIAN-HOMEOPATH",
      "verified": false,
      "lat": null,
      "lng": null
    },
    {
      "id": 330,
      "name": "DR SABNAM M PATEL",
      "qualification": "B.H.M.S,",
      "phone": "9081953827",
      "hospital": "SHOP NO 13,14, MAVIYA",
      "address": "SHOP NO 13,14, MAVIYA, RESIDENCY, OPP RIVERA HEIGHTS, NEW RANDER ROAD GORAT, SURAT., Gujarat, India",
      "specialty": "FAMILY PHYSICIAN-HOMEOPATH",
      "verified": false,
      "lat": null,
      "lng": null
    },
    {
      "id": 331,
      "name": "DR. PATHAN FIROZ KHAN AZIZ",
      "qualification": "B.H.M.S,",
      "phone": "7293727786",
      "hospital": "KHAN",
      "address": "KHAN, A/P KUKARMUNDA DIST. TAPI, Surat, Gujarat, India",
      "specialty": "FAMILY PHYSICIAN-HOMEOPATH",
      "verified": false,
      "lat": null,
      "lng": null
    },
    {
      "id": 332,
      "name": "DR. SAHISTA PATEL",
      "qualification": "B.H.M.S.",
      "phone": "9265345145",
      "hospital": "PLOT NUMBER 64,",
      "address": "PLOT NUMBER 64,, AMBANAGAR, B/H LIMBAYAT POLICE STATION, LIMBAYAT, SURAT., Gujarat, India",
      "specialty": "FAMILY PHYSICIAN-HOMEOPATH",
      "verified": false,
      "lat": null,
      "lng": null
    },
    {
      "id": 333,
      "name": "DR. NASRIN IMRAN SHAIKH",
      "qualification": "B.H.MS,",
      "phone": "7802814336",
      "hospital": "PLOT-1, SHOP NO 3, AAMENA",
      "address": "PLOT-1, SHOP NO 3, AAMENA, CLINIC, NEAR MUNNAWARA MASJID, PRATAP NAGAR, LIMBAYAT, SURAT., Gujarat, India",
      "specialty": "FAMILY PHYSICIAN-HOMEOPATH",
      "verified": false,
      "lat": null,
      "lng": null
    },
    {
      "id": 334,
      "name": "DR. UMERA ZAKIAHMED SAIYED",
      "qualification": "B.H.M.S, CERTIFIED MEDICAL",
      "phone": "9898578601",
      "hospital": "WRITER",
      "address": "WRITER, NOOR CLINIC, KAVINA PALACE, OPP B P URBAN HEALTH CENTRE, WANKI BORDI, SAIYED PURA, SURAT., Gujarat, India",
      "specialty": "FAMILY PHYSICIAN-HOMEOPATH",
      "verified": false,
      "lat": null,
      "lng": null
    },
    {
      "id": 335,
      "name": "DR. MUSTUFA AKBAR",
      "qualification": "B.H.M.S MD ( HOMOEO PURSUING )",
      "phone": "9601283042",
      "hospital": "NAVIWALA",
      "address": "NAVIWALA, AL SHIFA CLINIC SHOP NO 2, SUKUN ROW HOUSE, NEAR ZAINAB HOSPITAL, NEW RANDER ROAD, SURAT., Gujarat, India",
      "specialty": "FAMILY PHYSICIAN-HOMEOPATH",
      "verified": false,
      "lat": null,
      "lng": null
    },
    {
      "id": 336,
      "name": "DR. UZMA MASTAN",
      "qualification": "B.H.M.S(INTERN)",
      "phone": "9558720970",
      "hospital": "STUDENT",
      "address": "STUDENT, DIRECTORY 2022-23 FOR SOUTH GUJARAT ASSOCIATION OF MUSLIM DOCTORS Compiled By Dr Shahnavaz Kanuga                          Version 2.0                                         updated on 26/06/24.   45, Surat, Gujarat, India",
      "specialty": "FAMILY PHYSICIAN-HOMEOPATH",
      "verified": false,
      "lat": null,
      "lng": null
    },
    {
      "id": 337,
      "name": "DR. SHAHISTA. ENGINEER.",
      "qualification": "D.H.M.S, C.C.H,  C.G.O,",
      "phone": "9106510172",
      "hospital": "P.G.D.H.H.M",
      "address": "P.G.D.H.H.M, MADNI CLINIC BESIDES SWAMINARAYAN TEMPLE, DANDIA BAZAR, BHARUCH, Surat, Gujarat, India",
      "specialty": "FAMILY PHYSICIAN-HOMEOPATH",
      "verified": false,
      "lat": null,
      "lng": null
    },
    {
      "id": 338,
      "name": "DR KAUSER SHAMIM AHMED",
      "qualification": "D.H.M.S,",
      "phone": "7990883227",
      "hospital": "KAGZI",
      "address": "KAGZI, GORAT, NEW RANDER ROAD, FATEMA TOWER, SURAT., Gujarat, India",
      "specialty": "FAMILY PHYSICIAN-HOMEOPATH",
      "verified": false,
      "lat": null,
      "lng": null
    },
    {
      "id": 339,
      "name": "DR. REHNUMA KUNDA",
      "qualification": "DHMS,",
      "phone": "7698869984",
      "hospital": "303/C, FAROOQI FLATS,",
      "address": "303/C, FAROOQI FLATS,, OPP.JILANI COMPLEX, ADAJAN PATIYA, SURAT., Gujarat, India",
      "specialty": "FAMILY PHYSICIAN-HOMEOPATH",
      "verified": false,
      "lat": null,
      "lng": null
    },
    {
      "id": 340,
      "name": "DR HAFIZA MALIK",
      "qualification": "MD (HOM)",
      "phone": "9157407371",
      "hospital": "VITALITY HOMEOPATHIC CLINIC,",
      "address": "VITALITY HOMEOPATHIC CLINIC,, 14, PRAMUKH CHAMBER, TADWADI CHAR RASTA, RANDER ROAD, SURAT., Gujarat, India",
      "specialty": "FAMILY PHYSICIAN-HOMEOPATH",
      "verified": false,
      "lat": null,
      "lng": null
    },
    {
      "id": 341,
      "name": "DR HASANALI H. AGHARIYA",
      "qualification": "BHMS",
      "phone": "9624291274",
      "hospital": "EKTA CLINIC, PIPODRA GIDC,",
      "address": "EKTA CLINIC, PIPODRA GIDC,, SURAT., Gujarat, India",
      "specialty": "FAMILY PHYSICIAN-HOMEOPATH",
      "verified": false,
      "lat": null,
      "lng": null
    },
    {
      "id": 342,
      "name": "DR. TANZIM PAKEEZ SHAIKH",
      "qualification": "BHMS, MD PAEDIATRICS",
      "phone": "9586762088",
      "hospital": "(HOM) PURSUING",
      "address": "(HOM) PURSUING, ONLINE CONSULTATION, Surat, Gujarat, India",
      "specialty": "FAMILY PHYSICIAN-HOMEOPATH",
      "verified": false,
      "lat": null,
      "lng": null
    },
    {
      "id": 343,
      "name": "DR. AADIL KHAN",
      "qualification": "BUMS,",
      "phone": "8734030001",
      "hospital": "449, RAZA NAGAR, BHATENA,",
      "address": "449, RAZA NAGAR, BHATENA,, 181, SURAT,, Gujarat, India",
      "specialty": "FAMILY PHYSICIAN-HOMEOPATH",
      "verified": false,
      "lat": null,
      "lng": null
    },
    {
      "id": 344,
      "name": "DR. AZMATULLAH SIDDIQUI",
      "qualification": "B.U.M.S,",
      "phone": "9879987385",
      "hospital": "PLOT NO.45, KHANPURA, NEAR",
      "address": "PLOT NO.45, KHANPURA, NEAR, MADINA MASJID, LIMBAYAT, SURAT,, Gujarat, India",
      "specialty": "FAMILY PHYSICIAN-HOMEOPATH",
      "verified": false,
      "lat": null,
      "lng": null
    },
    {
      "id": 345,
      "name": "DR. DANISH S. MANSURI",
      "qualification": "B.U.M.S,",
      "phone": "9822720507",
      "hospital": "R.M.O AT LOKHAT HOSPITAL,",
      "address": "R.M.O AT LOKHAT HOSPITAL,, SURAT,, Gujarat, India",
      "specialty": "FAMILY PHYSICIAN-HOMEOPATH",
      "verified": false,
      "lat": null,
      "lng": null
    },
    {
      "id": 346,
      "name": "DR. EJAZ ASHRAF BIDIWALA",
      "qualification": "B.U.M.S.,",
      "phone": "9825483616",
      "hospital": "JILANI CLINIC,",
      "address": "JILANI CLINIC,, OPP. EKTA BAKERY, MITHIKHADI BRIDGE MAIN ROAD, LIMBAYAT, SURAT, Gujarat, India",
      "specialty": "FAMILY PHYSICIAN-HOMEOPATH",
      "verified": false,
      "lat": null,
      "lng": null
    },
    {
      "id": 347,
      "name": "DR. F. A. GIRASE",
      "qualification": "BUMS,",
      "phone": "8401101264",
      "hospital": "PLOT NO 53 S NO.44/2",
      "address": "PLOT NO 53 S NO.44/2, KHANPURA LIMBAYAT SURAT,, Gujarat, India",
      "specialty": "FAMILY PHYSICIAN-HOMEOPATH",
      "verified": false,
      "lat": null,
      "lng": null
    },
    {
      "id": 348,
      "name": "DR. HAKEEM MUHAMMAD",
      "qualification": "",
      "phone": "9825300177",
      "hospital": "UMAR",
      "address": "UMAR, D. U. M. S., 12/542, RANI TALAO, MAIN ROAD, SURAT., Gujarat, India",
      "specialty": "FAMILY PHYSICIAN-HOMEOPATH",
      "verified": false,
      "lat": null,
      "lng": null
    },
    {
      "id": 349,
      "name": "DR. IMRAN KHAN",
      "qualification": "BUMS,",
      "phone": "9033331393",
      "hospital": "ELAF APARTMENT, BADEKHA",
      "address": "ELAF APARTMENT, BADEKHA, CHAKLA, PAKHALIWAD,, Surat, Gujarat, India",
      "specialty": "FAMILY PHYSICIAN-UNANI",
      "verified": false,
      "lat": null,
      "lng": null
    },
    {
      "id": 350,
      "name": "DR. IQBAL ABUBAKAR BHULA",
      "qualification": "B.U.M.S,",
      "phone": "9974243122",
      "hospital": "MOSALI TA.MANGROL",
      "address": "MOSALI TA.MANGROL, DIST.SURAT,, Gujarat, India",
      "specialty": "FAMILY PHYSICIAN-UNANI",
      "verified": false,
      "lat": null,
      "lng": null
    },
    {
      "id": 351,
      "name": "DR. JAWID MANYAR",
      "qualification": "BUMS,",
      "phone": "9726720730",
      "hospital": "ISLAMI CHOWK MITHI KHADI",
      "address": "ISLAMI CHOWK MITHI KHADI, LIMBAYAT SURAT,, Gujarat, India",
      "specialty": "FAMILY PHYSICIAN-UNANI",
      "verified": false,
      "lat": null,
      "lng": null
    },
    {
      "id": 352,
      "name": "DR. JUNED YUNUS BHAI",
      "qualification": "BUMS,",
      "phone": "9579005007",
      "hospital": "MEMON",
      "address": "MEMON, MAIN BAZAR RAHAT MEDICAL OPP MAHAVIR KIRANA STORES AKKALKUWA DIST NANDURBAR,, Surat, Gujarat, India",
      "specialty": "FAMILY PHYSICIAN-UNANI",
      "verified": false,
      "lat": null,
      "lng": null
    },
    {
      "id": 353,
      "name": "DR. M. YUSUF M. IQBAL",
      "qualification": "B.U.M.S.,",
      "phone": "9998746558",
      "hospital": "MOTLANI",
      "address": "MOTLANI, MAAZ CLINIC PLOTT NO. 363 MARUTI NAGAR, OPP PADMAVATI SOCIETY, LIMBAYAT SURAT,, Gujarat, India",
      "specialty": "FAMILY PHYSICIAN-UNANI",
      "verified": false,
      "lat": null,
      "lng": null
    },
    {
      "id": 354,
      "name": "DR. M.LUKMAN HAKEEM",
      "qualification": "BUMS,",
      "phone": "8000568707",
      "hospital": "SHOP NO.3 , ALNOOR",
      "address": "SHOP NO.3 , ALNOOR, RESIDENCY, BHARIMATA ROAD,VARIYALI BAZAR, SURAT,, Gujarat, India",
      "specialty": "FAMILY PHYSICIAN-UNANI",
      "verified": false,
      "lat": null,
      "lng": null
    },
    {
      "id": 355,
      "name": "DR. M.D SHEHAB MALIK",
      "qualification": "B.U.M.S   M.R.T.C,",
      "phone": "8200953657",
      "hospital": "A3 MOAHMMADI NAGAR NEAR",
      "address": "A3 MOAHMMADI NAGAR NEAR, MASJID E ABU HANIFA BHINDIBAZAR UNN SURAT,, Gujarat, India",
      "specialty": "FAMILY PHYSICIAN-UNANI",
      "verified": false,
      "lat": null,
      "lng": null
    },
    {
      "id": 356,
      "name": "DR. MOHSIN JAMAL SHAIKH",
      "qualification": "B.U.M.S,",
      "phone": "9601498333",
      "hospital": "SEVA CLINIC, SHOP NO.16,",
      "address": "SEVA CLINIC, SHOP NO.16,, RABKA SHOPPING CENTRE, KILVANI ROAD, SILVASSA 396230 (DADRA AND NAGAR HAVELI),, Surat, Gujarat, India",
      "specialty": "FAMILY PHYSICIAN-UNANI",
      "verified": false,
      "lat": null,
      "lng": null
    },
    {
      "id": 357,
      "name": "DR. NEHAL ANSARI",
      "qualification": "BUMS,",
      "phone": "9825819868",
      "hospital": "CARE CLINIC MAHUVEJ ROAD",
      "address": "CARE CLINIC MAHUVEJ ROAD, JUNA KOSAMBA,, Surat, Gujarat, India",
      "specialty": "FAMILY PHYSICIAN-UNANI",
      "verified": false,
      "lat": null,
      "lng": null
    },
    {
      "id": 358,
      "name": "DR. NOORULAIN SHAIKH",
      "qualification": "BUMS,",
      "phone": "8780561496",
      "hospital": "ALNOOR CLINIC..NEAR LALMIYA",
      "address": "ALNOOR CLINIC..NEAR LALMIYA, MASJID OPP MARHABA BAKRY RAMPURA.SURAT,, Gujarat, India",
      "specialty": "FAMILY PHYSICIAN-UNANI",
      "verified": false,
      "lat": null,
      "lng": null
    },
    {
      "id": 359,
      "name": "DR. PATHAN HINA KAUSAR",
      "qualification": "BUMS,",
      "phone": "8000219639",
      "hospital": "105-108, PLATINUM PLAZA,",
      "address": "105-108, PLATINUM PLAZA,, UNN, SURAT,, Gujarat, India",
      "specialty": "FAMILY PHYSICIAN-UNANI",
      "verified": false,
      "lat": null,
      "lng": null
    },
    {
      "id": 360,
      "name": "DR. PATHAN RIZWANKHAN",
      "qualification": "B.U.M.S,",
      "phone": "8000991468",
      "hospital": "AHMADKHAN",
      "address": "AHMADKHAN, 84,BLOCK NO.1 PLOT NO.2 BHAVNA NAGAR LIMBAYAT UDHNA SURAT,, Gujarat, India",
      "specialty": "FAMILY PHYSICIAN-UNANI",
      "verified": false,
      "lat": null,
      "lng": null
    },
    {
      "id": 361,
      "name": "DR. PATHAN UZMA MOHD",
      "qualification": "B.U.M.S, PGDEMS, PGDCC",
      "phone": "9737973445",
      "hospital": "RIZWAN",
      "address": "RIZWAN, Surat, Gujarat, India",
      "specialty": "FAMILY PHYSICIAN-UNANI",
      "verified": false,
      "lat": null,
      "lng": null
    },
    {
      "id": 362,
      "name": "DR UZMA SKIN HAIR LASER",
      "qualification": "",
      "phone": "",
      "hospital": "CLINIC 6-7, 1ST FLOOR,",
      "address": "CLINIC 6-7, 1ST FLOOR,, RAJSHREE HALL, SAGRAMPURA., Surat, Gujarat, India",
      "specialty": "FAMILY PHYSICIAN-UNANI",
      "verified": false,
      "lat": null,
      "lng": null
    },
    {
      "id": 363,
      "name": "DR DANIYAL DESHMUKH",
      "qualification": "B.U.M.S",
      "phone": "7020345408",
      "hospital": "AMBER COLONY, HARI NAGAR",
      "address": "AMBER COLONY, HARI NAGAR, 1, UDHNA, SURAT., Gujarat, India",
      "specialty": "FAMILY PHYSICIAN-UNANI",
      "verified": false,
      "lat": null,
      "lng": null
    },
    {
      "id": 364,
      "name": "DR. SADIQUE KHAN",
      "qualification": "B.U.M.S (PUNE),",
      "phone": "9374077888",
      "hospital": "118 UMAR WADA LOW COST",
      "address": "118 UMAR WADA LOW COST, COLONY RING ROAD SURAT,, Gujarat, India",
      "specialty": "FAMILY PHYSICIAN-UNANI",
      "verified": false,
      "lat": null,
      "lng": null
    },
    {
      "id": 365,
      "name": "DR. SAEED M KHAN",
      "qualification": "BUMS,",
      "phone": "9427135945",
      "hospital": "AL SHIFA CLINIC,20/3,JUNA",
      "address": "AL SHIFA CLINIC,20/3,JUNA, DEPO, POWER HOUSE,RING ROAD,UMARWADA, SURAT.,, Gujarat, India",
      "specialty": "FAMILY PHYSICIAN-UNANI",
      "verified": false,
      "lat": null,
      "lng": null
    },
    {
      "id": 366,
      "name": "DR. SAIYED GHAZANFAR MEER",
      "qualification": "MBA,BUMS, PGDEMS,",
      "phone": "9898246941",
      "hospital": "AAMENA SARVANIK HOSPITAL",
      "address": "AAMENA SARVANIK HOSPITAL, UNN SURAT,, Gujarat, India",
      "specialty": "FAMILY PHYSICIAN-UNANI",
      "verified": false,
      "lat": null,
      "lng": null
    },
    {
      "id": 367,
      "name": "DR. SHAIKH RAFIQUNNISA",
      "qualification": "B.U.M.S.,",
      "phone": "9974875311",
      "hospital": "MUSLIM",
      "address": "MUSLIM, KHIDMATE-KHALAQ CLINIC,PLOT NO.50 BHINDI BAZAR,UNN SURAT,, Gujarat, India",
      "specialty": "FAMILY PHYSICIAN-UNANI",
      "verified": false,
      "lat": null,
      "lng": null
    },
    {
      "id": 368,
      "name": "DR. SYED IZHARUDDIN",
      "qualification": "BUMS,",
      "phone": "",
      "hospital": "AAMENA SARAVANIK HOSPITAL,",
      "address": "AAMENA SARAVANIK HOSPITAL,, Surat, Gujarat, India",
      "specialty": "FAMILY PHYSICIAN-UNANI",
      "verified": false,
      "lat": null,
      "lng": null
    },
    {
      "id": 369,
      "name": "DR. TALHA KHAN",
      "qualification": "BUMS,",
      "phone": "6354452588",
      "hospital": "MEHBOOB CLINIC,",
      "address": "MEHBOOB CLINIC,, PATANGWALA COMPLEX, OPP BADI MASJID, RANDER, SURAT., Gujarat, India",
      "specialty": "FAMILY PHYSICIAN-UNANI",
      "verified": false,
      "lat": null,
      "lng": null
    },
    {
      "id": 370,
      "name": "DR. TALHA MUSHTAQUE",
      "qualification": "BUMS,",
      "phone": "9099243437",
      "hospital": "QURESHI",
      "address": "QURESHI, PLOT NUMBER 64, MOHAMMADI MASJID, SHOP NUMBER 3, NEAR IQRA HIGH SCHOOL, UNN PATIYA, SURAT,, Gujarat, India",
      "specialty": "FAMILY PHYSICIAN-UNANI",
      "verified": false,
      "lat": null,
      "lng": null
    },
    {
      "id": 371,
      "name": "DR. TARIQUE V SHAIKH",
      "qualification": "BUMS,",
      "phone": "9376160172",
      "hospital": "D-6 D TENAMENT UMARWADA",
      "address": "D-6 D TENAMENT UMARWADA, NEAR UMARWADA HEALTH CENTER UMARWADA, RINGROAD,SURAT,, Gujarat, India",
      "specialty": "FAMILY PHYSICIAN-UNANI",
      "verified": false,
      "lat": null,
      "lng": null
    },
    {
      "id": 372,
      "name": "DR. UBAID MANIYAR",
      "qualification": "BUMS,",
      "phone": "9328745928",
      "hospital": "FAZAL CLINIC, PLOT NO.70,71",
      "address": "FAZAL CLINIC, PLOT NO.70,71, SARDAR NAGAR, GALI NO.3, BESIDE MASJID E IBRAHIM, LIMBAYAT SURAT, Gujarat, India",
      "specialty": "FAMILY PHYSICIAN-UNANI",
      "verified": false,
      "lat": null,
      "lng": null
    },
    {
      "id": 373,
      "name": "DR. ZAKARIYA MUSHTAQUE",
      "qualification": "B.U.M.S",
      "phone": "9725897232",
      "hospital": "QURESHI",
      "address": "QURESHI, 133A,TIRUPATI NAGAR ,NEAR DATAAR HOTEL ,UNN ,SURAT 394210,, Gujarat, India",
      "specialty": "FAMILY PHYSICIAN-UNANI",
      "verified": false,
      "lat": null,
      "lng": null
    },
    {
      "id": 374,
      "name": "DR. NADEEM ANSARI",
      "qualification": "B.U.M.S",
      "phone": "9558710080",
      "hospital": "FAIZ CLINIC, OPP.RIVERVIEW",
      "address": "FAIZ CLINIC, OPP.RIVERVIEW, SOCIETY, MAIN GATE, NR. MAKKA HOTEL, BHARIMATA ROAD, FULWADI, SURAT., Gujarat, India",
      "specialty": "FAMILY PHYSICIAN-UNANI",
      "verified": false,
      "lat": null,
      "lng": null
    },
    {
      "id": 375,
      "name": "DR. MOHAMMAD NISAR",
      "qualification": "B.U.M.S,",
      "phone": "8200379649",
      "hospital": "SHIFA CLINIC,",
      "address": "SHIFA CLINIC,, NEAR NURANI MASJID, OPP VARSHA MEDICAL, MITTIKHADI, SURAT, Gujarat, India",
      "specialty": "FAMILY PHYSICIAN-UNANI",
      "verified": false,
      "lat": null,
      "lng": null
    },
    {
      "id": 376,
      "name": "DR. SAYYED ZOHEB",
      "qualification": "B.U.M.S ,",
      "phone": "9714347056",
      "hospital": "MUHAMMAD SALIM",
      "address": "MUHAMMAD SALIM, KANKERIYA, TA-MAHUWA DIST-SURAT, Gujarat, India",
      "specialty": "FAMILY PHYSICIAN-UNANI",
      "verified": false,
      "lat": null,
      "lng": null
    },
    {
      "id": 377,
      "name": "DR FAROOQUEE MD AWAIS",
      "qualification": "BUMS,",
      "phone": "9595911692",
      "hospital": "315, AZRA HEALTH CENTER,",
      "address": "315, AZRA HEALTH CENTER,, MULLA FALIYA, JOGWAD, Surat, Gujarat, India",
      "specialty": "FAMILY PHYSICIAN-UNANI",
      "verified": false,
      "lat": null,
      "lng": null
    },
    {
      "id": 378,
      "name": "DR ASMA TARIQUE SHAIKH",
      "qualification": "BUMS",
      "phone": "7802047229",
      "hospital": "NISWA CARE CLINIC",
      "address": "NISWA CARE CLINIC, 19, LOW-COST COLONY, UMARWADA, NEAR HEALTH CENTER, SURAT., Gujarat, India",
      "specialty": "FAMILY PHYSICIAN-UNANI",
      "verified": false,
      "lat": null,
      "lng": null
    },
    {
      "id": 379,
      "name": "DR. AASIYA ZABHA",
      "qualification": "",
      "phone": "9664995952",
      "hospital": "B.P.T,",
      "address": "B.P.T,, SAMOL HOSPITAL, SURAT, Gujarat, India",
      "specialty": "FAMILY PHYSICIAN-UNANI",
      "verified": false,
      "lat": null,
      "lng": null
    },
    {
      "id": 380,
      "name": "DR ANISA KHAN PATHAN",
      "qualification": "",
      "phone": "9909257842",
      "hospital": "B.P.T, CERTIFIED FITNESS",
      "address": "B.P.T, CERTIFIED FITNESS, TRAINER FROM IAFT, CERTIFIED CUPPING THERAPIST, FIRDAUS TOWER, ADAJAN PATIYA, SURAT., Gujarat, India",
      "specialty": "FAMILY PHYSICIAN-UNANI",
      "verified": false,
      "lat": null,
      "lng": null
    },
    {
      "id": 381,
      "name": "DR. ASIF MALEK",
      "qualification": "",
      "phone": "9428180696",
      "hospital": "B.P.T,",
      "address": "B.P.T,, FISHA PHYSIO CARE,MOTAMANDIR ROAD,KOSAMBA 394120,, Surat, Gujarat, India",
      "specialty": "FAMILY PHYSICIAN-UNANI",
      "verified": false,
      "lat": null,
      "lng": null
    },
    {
      "id": 382,
      "name": "DR. MASIRA KOLA",
      "qualification": "",
      "phone": "6359793891",
      "hospital": "B.P.T,",
      "address": "B.P.T,, WORKING AT ZAINAB HOSPITAL, OTHERS HOSP ON CALLS, & HOME VISITS IN ADAJAN / RANDER AREA, Surat, Gujarat, India",
      "specialty": "FAMILY PHYSICIAN-UNANI",
      "verified": false,
      "lat": null,
      "lng": null
    },
    {
      "id": 383,
      "name": "DR. M.D MAJID IQBAL",
      "qualification": "",
      "phone": "9925685008",
      "hospital": "B.P.T,",
      "address": "B.P.T,, FAST RELIEF PHYSIOTHERAPY CLINIC, G17 ROYAL RESIDENCY, UNN, SURAT, GUJARAT,, Gujarat, India",
      "specialty": "FAMILY PHYSICIAN-UNANI",
      "verified": false,
      "lat": null,
      "lng": null
    },
    {
      "id": 384,
      "name": "DR. SAISTA SHAIKH",
      "qualification": "",
      "phone": "9601894950",
      "hospital": "B.P.T,",
      "address": "B.P.T,, SURAT, Gujarat, India",
      "specialty": "FAMILY PHYSICIAN-UNANI",
      "verified": false,
      "lat": null,
      "lng": null
    },
    {
      "id": 385,
      "name": "DR. SUMAIYA SHAIKH",
      "qualification": "",
      "phone": "9824292237",
      "hospital": "B..P.T, COMT, CHT (CUPPING",
      "address": "B..P.T, COMT, CHT (CUPPING, THERAPIST) DIET AND FITNESS EXPERT G. FLOOR, AL FALAH PALACE C, BH GUMBAJWALI MASJID, HASANJI STREET, KANSKIWAD-HARIPURA, SURAT, Gujarat, India",
      "specialty": "FAMILY PHYSICIAN-UNANI",
      "verified": false,
      "lat": null,
      "lng": null
    },
    {
      "id": 386,
      "name": "DR. ZAFARKHAN BASHIRKHAN",
      "qualification": "",
      "phone": "8866393405",
      "hospital": "HAKIM",
      "address": "HAKIM, B.P.T, KHAWAJA CHEMBAR BEHIND OLD CIVIL HOSPITAL , CHOCKBAZAR , SURAT,, Gujarat, India",
      "specialty": "FAMILY PHYSICIAN-UNANI",
      "verified": false,
      "lat": null,
      "lng": null
    },
    {
      "id": 387,
      "name": "DR. NUSRAT SAIYED",
      "qualification": "",
      "phone": "8320166488",
      "hospital": "B.P.T.(GSCPT),",
      "address": "B.P.T.(GSCPT),, JAN SEVA SANGH PHYSIOTHERAPY CLINIC, NEAR SALABATPURA POLICE STATION, SALABATPURA, SURAT., Gujarat, India",
      "specialty": "FAMILY PHYSICIAN-UNANI",
      "verified": false,
      "lat": null,
      "lng": null
    },
    {
      "id": 388,
      "name": "DR. KULSUM WAHEDKALAM",
      "qualification": "",
      "phone": "9601177712",
      "hospital": "B.P.T + DIPLOMA IN COSMETOLOGY &",
      "address": "B.P.T + DIPLOMA IN COSMETOLOGY &, AESTHETICS + DIPLOMA IN SUJOK THERAPIST & LECTU, CARE PHYSIOTHERAPY & HIJAMA CLINIC, SHOP-5/6 , AJMERI FLATS, OPP, FAIZ TOWER, NEW RANDER ROAD, SURAT, Gujarat, India",
      "specialty": "PHYSIOTHERAPIST",
      "verified": false,
      "lat": null,
      "lng": null
    },
    {
      "id": 389,
      "name": "DR. SADAF SAIYED",
      "qualification": "",
      "phone": "9913752844",
      "hospital": "B.P.T, ADVANCED C/NDT(PEDS)(USA),",
      "address": "B.P.T, ADVANCED C/NDT(PEDS)(USA),, C/SI (WPS/USC-USA), PEARL PAEDIATRIC PHYSIOTHERAPY AND NEURODEVELOPMENTAL CENTRE, 2ND FLOOR,  SHREE VARDHAMAN JAIN COMPLEX, NEAR CROWN DAIRY, NANAVAT MAIN ROAD,  SURAT- 395003,, Gujarat, India",
      "specialty": "PHYSIOTHERAPIST",
      "verified": false,
      "lat": null,
      "lng": null
    },
    {
      "id": 390,
      "name": "DR. KHALID MANSURI",
      "qualification": "",
      "phone": "9825676488",
      "hospital": "B.P.T, P G D CARDIO RESPI,",
      "address": "B.P.T, P G D CARDIO RESPI,, INS REHAB 7- RAJ EMPIRE, OPP DOMINOS PIZZA, LUNSI KUI, NAVSARI,, Surat, Gujarat, India",
      "specialty": "PHYSIOTHERAPIST",
      "verified": false,
      "lat": null,
      "lng": null
    },
    {
      "id": 391,
      "name": "DR. FAZALERASUL THAKOR",
      "qualification": "",
      "phone": "9638513067",
      "hospital": "PHYSIOTHERAPY AND",
      "address": "PHYSIOTHERAPY AND, OCCUPATIONAL THERAPY, NEW LIFE PHYSIOTHERAPY CENTRE MG ROAD KOSAMBA,, Surat, Gujarat, India",
      "specialty": "PHYSIOTHERAPIST",
      "verified": false,
      "lat": null,
      "lng": null
    },
    {
      "id": 392,
      "name": "DR. SHAHNAWAZKHAN",
      "qualification": "",
      "phone": "9638166324",
      "hospital": "PATHAN",
      "address": "PATHAN, M.P.T IN EXERCISE AND SPORTS TRAINING, FAIDAUS TOWER, ADAJAN PATIA, SURAT, Gujarat, India",
      "specialty": "PHYSIOTHERAPIST",
      "verified": false,
      "lat": null,
      "lng": null
    },
    {
      "id": 393,
      "name": "DR. MUHAMMAD NAUMAN",
      "qualification": "",
      "phone": "7383888452",
      "hospital": "KAZI",
      "address": "KAZI, MASTER OF PHYSIOTHERAPY (CARDIO- RESPIRATORY DISORDERS), LOKHAT HOSPITAL, SURAT, Gujarat, India",
      "specialty": "PHYSIOTHERAPIST",
      "verified": false,
      "lat": null,
      "lng": null
    },
    {
      "id": 394,
      "name": "DR. SUFIYABIBI SHAIKH",
      "qualification": "",
      "phone": "9601171473",
      "hospital": "B.P.T,",
      "address": "B.P.T,, SMV HOSPITAL, BHAGATALAV, SURAT., Gujarat, India",
      "specialty": "PHYSIOTHERAPIST",
      "verified": false,
      "lat": null,
      "lng": null
    },
    {
      "id": 395,
      "name": "DR. SUMAYYA MO. ARIF MANSURI",
      "qualification": "",
      "phone": "9714798863",
      "hospital": "B.P.T,",
      "address": "B.P.T,, 1- THE PHYSIO GUARDIAN PHYSIOTHERAPY, FITNESS & HIJAMA CENTER OPP. DINATH BUNGALOW, NR. RAMPURA PETROL PUMP, SURAT. 2 - SUFI SARVAJANIK HOSPITAL TRUST LALGATE, KHANDBAZAR, SURAT., Gujarat, India",
      "specialty": "PHYSIOTHERAPIST",
      "verified": false,
      "lat": null,
      "lng": null
    },
    {
      "id": 396,
      "name": "DR SHARMIN SUSIWALA",
      "qualification": "",
      "phone": "9327319183",
      "hospital": "B.P.T,",
      "address": "B.P.T,, WELLNESS PHYSIOTHERAPY AND REHABILITATION CENTRE GROUND FLOOR, NAZIM MANZIL, BESIDES PARSI PATEL SCHOOL, MACHCHLIPITH, SURAT, Gujarat, India",
      "specialty": "PHYSIOTHERAPIST",
      "verified": false,
      "lat": null,
      "lng": null
    },
    {
      "id": 397,
      "name": "DR. ZAINAB RAJWANI",
      "qualification": "",
      "phone": "7048525307",
      "hospital": "B.P.T,",
      "address": "B.P.T,, 301 PEARL HEIGHTS, SURAT, Gujarat, India",
      "specialty": "PHYSIOTHERAPIST",
      "verified": false,
      "lat": null,
      "lng": null
    },
    {
      "id": 398,
      "name": "DR. MAIMUNAH DR. YAHYA",
      "qualification": "",
      "phone": "9099454353",
      "hospital": "BOMBAYWALA",
      "address": "BOMBAYWALA, B.P.T CONSULTANT, Surat, Gujarat, India",
      "specialty": "PHYSIOTHERAPIST",
      "verified": false,
      "lat": null,
      "lng": null
    },
    {
      "id": 399,
      "name": "DR. AYESHA ARIF PATEL",
      "qualification": "",
      "phone": "9265781183",
      "hospital": "B.P.T, M.P.T IN",
      "address": "B.P.T, M.P.T IN, REHABILITATION HOME VISIT, Surat, Gujarat, India",
      "specialty": "PHYSIOTHERAPIST",
      "verified": false,
      "lat": null,
      "lng": null
    },
    {
      "id": 400,
      "name": "DR AHAD SAIYED",
      "qualification": "",
      "phone": "9712924032",
      "hospital": "B.P.T",
      "address": "B.P.T, I-CURE HOSPITAL NAZAHA KHAN B.P.T SAMOL HOSPITAL, SURAT. BURHANI HOSPITAL, SURAT., Gujarat, India",
      "specialty": "PHYSIOTHERAPIST",
      "verified": false,
      "lat": null,
      "lng": null
    }
  ]
}